[
  {
    "type": "Feature",
    "id": "cajeros_automaticos_red_banelco|40641",
    "geometry": {
      "type": "Point",
      "coordinates": [-58.71397329999993, -34.9128185]
    },
    "properties": {
      "Id": "cajeros_automaticos_red_banelco|40641",
      "Nombre": "Cajero Red Banelco"
    }
  },
  {
    "type": "Feature",
    "id": "cajeros_automaticos_red_banelco|40459",
    "geometry": {
      "type": "Point",
      "coordinates": [-58.82962489999992, -34.430267899999954]
    },
    "properties": {
      "Id": "cajeros_automaticos_red_banelco|40459",
      "Nombre": "Cajero Red Banelco"
    }
  },
  {
    "type": "Feature",
    "id": "cajeros_automaticos_red_banelco|41142",
    "geometry": {
      "type": "Point",
      "coordinates": [-58.53482839999993, -34.81500439999996]
    },
    "properties": {
      "Id": "cajeros_automaticos_red_banelco|41142",
      "Nombre": "Cajero Red Banelco"
    }
  },
  {
    "type": "Feature",
    "id": "cajeros_automaticos_red_banelco|40101",
    "geometry": {
      "type": "Point",
      "coordinates": [-58.59619309999992, -34.484536799999965]
    },
    "properties": {
      "Id": "cajeros_automaticos_red_banelco|40101",
      "Nombre": "Cajero Red Banelco"
    }
  },
  {
    "type": "Feature",
    "id": "cajeros_automaticos_red_banelco|41352",
    "geometry": {
      "type": "Point",
      "coordinates": [-57.930833499999935, -34.887073]
    },
    "properties": {
      "Id": "cajeros_automaticos_red_banelco|41352",
      "Nombre": "Cajero Red Banelco"
    }
  },
  {
    "type": "Feature",
    "id": "cajeros_automaticos_red_banelco|41100",
    "geometry": {
      "type": "Point",
      "coordinates": [-58.41016559999993, -34.558386099999964]
    },
    "properties": {
      "Id": "cajeros_automaticos_red_banelco|41100",
      "Nombre": "Cajero Red Banelco"
    }
  },
  {
    "type": "Feature",
    "id": "cajeros_automaticos_red_banelco|40720",
    "geometry": {
      "type": "Point",
      "coordinates": [-58.408428, -34.560059]
    },
    "properties": {
      "Id": "cajeros_automaticos_red_banelco|40720",
      "Nombre": "Cajero Red Banelco"
    }
  },
  {
    "type": "Feature",
    "id": "cajeros_automaticos_red_banelco|40860",
    "geometry": {
      "type": "Point",
      "coordinates": [-58.53003009999996, -34.635014699999985]
    },
    "properties": {
      "Id": "cajeros_automaticos_red_banelco|40860",
      "Nombre": "Cajero Red Banelco en 100 - Colectora General Paz Y D11 - Colectora General José María Paz"
    }
  },
  {
    "type": "Feature",
    "id": "cajeros_automaticos_red_banelco|40274",
    "geometry": {
      "type": "Point",
      "coordinates": [-58.54555, -34.5506355]
    },
    "properties": {
      "Id": "cajeros_automaticos_red_banelco|40274",
      "Nombre": "Cajero Red Banelco en 102 - Paraná Y 51 Corrientes"
    }
  },
  {
    "type": "Feature",
    "id": "cajeros_automaticos_red_banelco|40913",
    "geometry": {
      "type": "Point",
      "coordinates": [-58.54555, -34.5506355]
    },
    "properties": {
      "Id": "cajeros_automaticos_red_banelco|40913",
      "Nombre": "Cajero Red Banelco en 102 - Paraná Y 51 Corrientes"
    }
  },
  {
    "type": "Feature",
    "id": "cajeros_automaticos_red_banelco|40601",
    "geometry": {
      "type": "Point",
      "coordinates": [-58.5319424, -34.63912779999998]
    },
    "properties": {
      "Id": "cajeros_automaticos_red_banelco|40601",
      "Nombre": "Cajero Red Banelco en 104 - Teniente Coronel Amadeo Ibarrola Y 137 - Avenida Bernardino Rivadavia"
    }
  },
  {
    "type": "Feature",
    "id": "cajeros_automaticos_red_banelco|41295",
    "geometry": {
      "type": "Point",
      "coordinates": [-58.572161, -34.558511]
    },
    "properties": {
      "Id": "cajeros_automaticos_red_banelco|41295",
      "Nombre": "Cajero Red Banelco en 105 - Lynch Pueyrredón Y Pasaje 124 - Caseríos de Perdriel"
    }
  },
  {
    "type": "Feature",
    "id": "cajeros_automaticos_red_banelco|39711",
    "geometry": {
      "type": "Point",
      "coordinates": [-58.53500239999998, -34.639741499999985]
    },
    "properties": {
      "Id": "cajeros_automaticos_red_banelco|39711",
      "Nombre": "Cajero Red Banelco en 108 - Rodolfo Luchter Y 246 - Granaderos"
    }
  },
  {
    "type": "Feature",
    "id": "cajeros_automaticos_red_banelco|39846",
    "geometry": {
      "type": "Point",
      "coordinates": [-58.53500239999998, -34.639741499999985]
    },
    "properties": {
      "Id": "cajeros_automaticos_red_banelco|39846",
      "Nombre": "Cajero Red Banelco en 108 - Rodolfo Luchter Y 246 - Granaderos"
    }
  },
  {
    "type": "Feature",
    "id": "cajeros_automaticos_red_banelco|40081",
    "geometry": {
      "type": "Point",
      "coordinates": [-58.53500239999998, -34.639741499999985]
    },
    "properties": {
      "Id": "cajeros_automaticos_red_banelco|40081",
      "Nombre": "Cajero Red Banelco en 108 - Rodolfo Luchter Y 246 - Granaderos"
    }
  },
  {
    "type": "Feature",
    "id": "cajeros_automaticos_red_banelco|40441",
    "geometry": {
      "type": "Point",
      "coordinates": [-58.53500239999998, -34.639741499999985]
    },
    "properties": {
      "Id": "cajeros_automaticos_red_banelco|40441",
      "Nombre": "Cajero Red Banelco en 108 - Rodolfo Luchter Y 246 - Granaderos"
    }
  },
  {
    "type": "Feature",
    "id": "cajeros_automaticos_red_banelco|41039",
    "geometry": {
      "type": "Point",
      "coordinates": [-58.53500239999998, -34.639741499999985]
    },
    "properties": {
      "Id": "cajeros_automaticos_red_banelco|41039",
      "Nombre": "Cajero Red Banelco en 108 - Rodolfo Luchter Y 246 - Granaderos"
    }
  },
  {
    "type": "Feature",
    "id": "cajeros_automaticos_red_banelco|41112",
    "geometry": {
      "type": "Point",
      "coordinates": [-58.53522929999997, -34.6397564]
    },
    "properties": {
      "Id": "cajeros_automaticos_red_banelco|41112",
      "Nombre": "Cajero Red Banelco en 108 - Rodolfo Luchter Y 246 - Granaderos"
    }
  },
  {
    "type": "Feature",
    "id": "cajeros_automaticos_red_banelco|41185",
    "geometry": {
      "type": "Point",
      "coordinates": [-58.53500239999998, -34.639741499999985]
    },
    "properties": {
      "Id": "cajeros_automaticos_red_banelco|41185",
      "Nombre": "Cajero Red Banelco en 108 - Rodolfo Luchter Y 246 - Granaderos"
    }
  },
  {
    "type": "Feature",
    "id": "cajeros_automaticos_red_banelco|41084",
    "geometry": {
      "type": "Point",
      "coordinates": [-58.53500239999998, -34.639741499999985]
    },
    "properties": {
      "Id": "cajeros_automaticos_red_banelco|41084",
      "Nombre": "Cajero Red Banelco en 108 - Rodolfo Luchter Y 246 - Granaderos"
    }
  },
  {
    "type": "Feature",
    "id": "cajeros_automaticos_red_banelco|40527",
    "geometry": {
      "type": "Point",
      "coordinates": [-58.53500239999998, -34.639741499999985]
    },
    "properties": {
      "Id": "cajeros_automaticos_red_banelco|40527",
      "Nombre": "Cajero Red Banelco en 108 - Rodolfo Luchter Y 246 - Granaderos"
    }
  },
  {
    "type": "Feature",
    "id": "cajeros_automaticos_red_banelco|40690",
    "geometry": {
      "type": "Point",
      "coordinates": [-58.525886599999964, -34.592399599999986]
    },
    "properties": {
      "Id": "cajeros_automaticos_red_banelco|40690",
      "Nombre": "Cajero Red Banelco en 10 - República del Líbano Y 97 - Victorino de la Plaza"
    }
  },
  {
    "type": "Feature",
    "id": "cajeros_automaticos_red_banelco|41020",
    "geometry": {
      "type": "Point",
      "coordinates": [-58.546665, -34.5433255]
    },
    "properties": {
      "Id": "cajeros_automaticos_red_banelco|41020",
      "Nombre": "Cajero Red Banelco en 114 Alvear Y 39 Charlone"
    }
  },
  {
    "type": "Feature",
    "id": "cajeros_automaticos_red_banelco|40264",
    "geometry": {
      "type": "Point",
      "coordinates": [-58.55145249999999, -34.5473842]
    },
    "properties": {
      "Id": "cajeros_automaticos_red_banelco|40264",
      "Nombre": "Cajero Red Banelco en 114 Alvear Y 55 Buenos Aires"
    }
  },
  {
    "type": "Feature",
    "id": "cajeros_automaticos_red_banelco|40391",
    "geometry": {
      "type": "Point",
      "coordinates": [-58.552342919999965, -34.548044189999985]
    },
    "properties": {
      "Id": "cajeros_automaticos_red_banelco|40391",
      "Nombre": "Cajero Red Banelco en 114 Alvear Y 57 Ballester"
    }
  },
  {
    "type": "Feature",
    "id": "cajeros_automaticos_red_banelco|40745",
    "geometry": {
      "type": "Point",
      "coordinates": [-58.55292069999997, -34.5486191]
    },
    "properties": {
      "Id": "cajeros_automaticos_red_banelco|40745",
      "Nombre": "Cajero Red Banelco en 114 Alvear Y 61 Lacroze"
    }
  },
  {
    "type": "Feature",
    "id": "cajeros_automaticos_red_banelco|40596",
    "geometry": {
      "type": "Point",
      "coordinates": [-58.555421399999986, -34.550730399999985]
    },
    "properties": {
      "Id": "cajeros_automaticos_red_banelco|40596",
      "Nombre": "Cajero Red Banelco en 114 Alvear Y 65 Independencia"
    }
  },
  {
    "type": "Feature",
    "id": "cajeros_automaticos_red_banelco|40039",
    "geometry": {
      "type": "Point",
      "coordinates": [-58.55608019999996, -34.5508403]
    },
    "properties": {
      "Id": "cajeros_automaticos_red_banelco|40039",
      "Nombre": "Cajero Red Banelco en 116 - Almirante Brown Y 69 San Martín"
    }
  },
  {
    "type": "Feature",
    "id": "cajeros_automaticos_red_banelco|41120",
    "geometry": {
      "type": "Point",
      "coordinates": [-58.55608019999996, -34.5508403]
    },
    "properties": {
      "Id": "cajeros_automaticos_red_banelco|41120",
      "Nombre": "Cajero Red Banelco en 116 - Almirante Brown Y 69 San Martín"
    }
  },
  {
    "type": "Feature",
    "id": "cajeros_automaticos_red_banelco|41357",
    "geometry": {
      "type": "Point",
      "coordinates": [-58.79374429999997, -34.43813949999998]
    },
    "properties": {
      "Id": "cajeros_automaticos_red_banelco|41357",
      "Nombre": "Cajero Red Banelco en 11 de Junio Y Pueyrredon"
    }
  },
  {
    "type": "Feature",
    "id": "cajeros_automaticos_red_banelco|40109",
    "geometry": {
      "type": "Point",
      "coordinates": [-58.8738418, -34.44272739999999]
    },
    "properties": {
      "Id": "cajeros_automaticos_red_banelco|40109",
      "Nombre": "Cajero Red Banelco en 12 de Octubre Y Chubut"
    }
  },
  {
    "type": "Feature",
    "id": "cajeros_automaticos_red_banelco|41266",
    "geometry": {
      "type": "Point",
      "coordinates": [-58.87258309999997, -34.4452655]
    },
    "properties": {
      "Id": "cajeros_automaticos_red_banelco|41266",
      "Nombre": "Cajero Red Banelco en 12 de Octubre Y Los Perales"
    }
  },
  {
    "type": "Feature",
    "id": "cajeros_automaticos_red_banelco|40430",
    "geometry": {
      "type": "Point",
      "coordinates": [-58.47007969999998, -34.60142569999998]
    },
    "properties": {
      "Id": "cajeros_automaticos_red_banelco|40430",
      "Nombre": "Cajero Red Banelco en 12 DE OCTUBRE Y SAN MARTIN AV."
    }
  },
  {
    "type": "Feature",
    "id": "cajeros_automaticos_red_banelco|40475",
    "geometry": {
      "type": "Point",
      "coordinates": [-57.95138678999998, -34.92211133999997]
    },
    "properties": {
      "Id": "cajeros_automaticos_red_banelco|40475",
      "Nombre": "Cajero Red Banelco en 12 Y 55"
    }
  },
  {
    "type": "Feature",
    "id": "cajeros_automaticos_red_banelco|40534",
    "geometry": {
      "type": "Point",
      "coordinates": [-57.951851, -34.92177]
    },
    "properties": {
      "Id": "cajeros_automaticos_red_banelco|40534",
      "Nombre": "Cajero Red Banelco en 12 Y 55"
    }
  },
  {
    "type": "Feature",
    "id": "cajeros_automaticos_red_banelco|40916",
    "geometry": {
      "type": "Point",
      "coordinates": [-58.559381, -34.591384]
    },
    "properties": {
      "Id": "cajeros_automaticos_red_banelco|40916",
      "Nombre": "Cajero Red Banelco en 139 - Pres Montt Y 56 - 1 de Mayo"
    }
  },
  {
    "type": "Feature",
    "id": "cajeros_automaticos_red_banelco|40315",
    "geometry": {
      "type": "Point",
      "coordinates": [-58.045401, -34.871393199999986]
    },
    "properties": {
      "Id": "cajeros_automaticos_red_banelco|40315",
      "Nombre": "Cajero Red Banelco en 14b Y 473 Bis"
    }
  },
  {
    "type": "Feature",
    "id": "cajeros_automaticos_red_banelco|40824",
    "geometry": {
      "type": "Point",
      "coordinates": [-58.04695579999998, -34.871412]
    },
    "properties": {
      "Id": "cajeros_automaticos_red_banelco|40824",
      "Nombre": "Cajero Red Banelco en 14b Y Plaza Belgrano"
    }
  },
  {
    "type": "Feature",
    "id": "cajeros_automaticos_red_banelco|39946",
    "geometry": {
      "type": "Point",
      "coordinates": [-58.3590809, -34.79605979999997]
    },
    "properties": {
      "Id": "cajeros_automaticos_red_banelco|39946",
      "Nombre": "Cajero Red Banelco en 20 de Septiembre Y Colón"
    }
  },
  {
    "type": "Feature",
    "id": "cajeros_automaticos_red_banelco|40426",
    "geometry": {
      "type": "Point",
      "coordinates": [-58.27624829999998, -34.8093518]
    },
    "properties": {
      "Id": "cajeros_automaticos_red_banelco|40426",
      "Nombre": "Cajero Red Banelco en 224 - Bartolomé Mitre Y España"
    }
  },
  {
    "type": "Feature",
    "id": "cajeros_automaticos_red_banelco|40578",
    "geometry": {
      "type": "Point",
      "coordinates": [-58.531929, -34.590886]
    },
    "properties": {
      "Id": "cajeros_automaticos_red_banelco|40578",
      "Nombre": "Cajero Red Banelco en 22 - Rodríguez Peña Y Heredia"
    }
  },
  {
    "type": "Feature",
    "id": "cajeros_automaticos_red_banelco|40776",
    "geometry": {
      "type": "Point",
      "coordinates": [-58.4110502711736, -34.62021885042969]
    },
    "properties": {
      "Id": "cajeros_automaticos_red_banelco|40776",
      "Nombre": "Cajero Red Banelco en 24 DE NOVIEMBRE 791"
    }
  },
  {
    "type": "Feature",
    "id": "cajeros_automaticos_red_banelco|40117",
    "geometry": {
      "type": "Point",
      "coordinates": [-58.37111249494926, -34.60611284729118]
    },
    "properties": {
      "Id": "cajeros_automaticos_red_banelco|40117",
      "Nombre": "Cajero Red Banelco en 25 DE MAYO 140"
    }
  },
  {
    "type": "Feature",
    "id": "cajeros_automaticos_red_banelco|41184",
    "geometry": {
      "type": "Point",
      "coordinates": [-58.37079615246943, -34.604271137450915]
    },
    "properties": {
      "Id": "cajeros_automaticos_red_banelco|41184",
      "Nombre": "Cajero Red Banelco en 25 DE MAYO 299"
    }
  },
  {
    "type": "Feature",
    "id": "cajeros_automaticos_red_banelco|40157",
    "geometry": {
      "type": "Point",
      "coordinates": [-58.28039939999998, -34.8011715]
    },
    "properties": {
      "Id": "cajeros_automaticos_red_banelco|40157",
      "Nombre": "Cajero Red Banelco en 25 de Mayo Y 78 - Coronel Manuel Dorrego"
    }
  },
  {
    "type": "Feature",
    "id": "cajeros_automaticos_red_banelco|41253",
    "geometry": {
      "type": "Point",
      "coordinates": [-58.406268799999964, -34.7826651]
    },
    "properties": {
      "Id": "cajeros_automaticos_red_banelco|41253",
      "Nombre": "Cajero Red Banelco en 25 de Mayo Y Avenida Hipólito Yrigoyen"
    }
  },
  {
    "type": "Feature",
    "id": "cajeros_automaticos_red_banelco|41043",
    "geometry": {
      "type": "Point",
      "coordinates": [-58.794962399999974, -34.353339]
    },
    "properties": {
      "Id": "cajeros_automaticos_red_banelco|41043",
      "Nombre": "Cajero Red Banelco en 25 de Mayo Y Bernardo de Irigoyen"
    }
  },
  {
    "type": "Feature",
    "id": "cajeros_automaticos_red_banelco|40584",
    "geometry": {
      "type": "Point",
      "coordinates": [-58.479712299999974, -34.52770519999998]
    },
    "properties": {
      "Id": "cajeros_automaticos_red_banelco|40584",
      "Nombre": "Cajero Red Banelco en 25 de Mayo Y Federico Bardi"
    }
  },
  {
    "type": "Feature",
    "id": "cajeros_automaticos_red_banelco|41045",
    "geometry": {
      "type": "Point",
      "coordinates": [-58.479712299999974, -34.52770519999998]
    },
    "properties": {
      "Id": "cajeros_automaticos_red_banelco|41045",
      "Nombre": "Cajero Red Banelco en 25 de Mayo Y Federico Bardi"
    }
  },
  {
    "type": "Feature",
    "id": "cajeros_automaticos_red_banelco|39794",
    "geometry": {
      "type": "Point",
      "coordinates": [-58.479712299999974, -34.52770519999998]
    },
    "properties": {
      "Id": "cajeros_automaticos_red_banelco|39794",
      "Nombre": "Cajero Red Banelco en 25 de Mayo Y Federico Bardi"
    }
  },
  {
    "type": "Feature",
    "id": "cajeros_automaticos_red_banelco|40455",
    "geometry": {
      "type": "Point",
      "coordinates": [-58.42020009999997, -34.69893569999998]
    },
    "properties": {
      "Id": "cajeros_automaticos_red_banelco|40455",
      "Nombre": "Cajero Red Banelco en 25 de Mayo Y La Rioja"
    }
  },
  {
    "type": "Feature",
    "id": "cajeros_automaticos_red_banelco|40453",
    "geometry": {
      "type": "Point",
      "coordinates": [-58.78818479999998, -34.34687129999998]
    },
    "properties": {
      "Id": "cajeros_automaticos_red_banelco|40453",
      "Nombre": "Cajero Red Banelco en 25 de Mayo Y San Lorenzo"
    }
  },
  {
    "type": "Feature",
    "id": "cajeros_automaticos_red_banelco|40918",
    "geometry": {
      "type": "Point",
      "coordinates": [-58.544045399999966, -34.63486169999999]
    },
    "properties": {
      "Id": "cajeros_automaticos_red_banelco|40918",
      "Nombre": "Cajero Red Banelco en 260 - 9 de Julio Y 225 - Avenida Gaona"
    }
  },
  {
    "type": "Feature",
    "id": "cajeros_automaticos_red_banelco|40847",
    "geometry": {
      "type": "Point",
      "coordinates": [-58.54684709999998, -34.6279211]
    },
    "properties": {
      "Id": "cajeros_automaticos_red_banelco|40847",
      "Nombre": "Cajero Red Banelco en 260 - 9 de Julio Y 259 - Eduardo Comesaña"
    }
  },
  {
    "type": "Feature",
    "id": "cajeros_automaticos_red_banelco|41343",
    "geometry": {
      "type": "Point",
      "coordinates": [-58.54684709999998, -34.6279211]
    },
    "properties": {
      "Id": "cajeros_automaticos_red_banelco|41343",
      "Nombre": "Cajero Red Banelco en 260 - 9 de Julio Y 259 - Eduardo Comesaña"
    }
  },
  {
    "type": "Feature",
    "id": "cajeros_automaticos_red_banelco|40429",
    "geometry": {
      "type": "Point",
      "coordinates": [-58.54882109999998, -34.632045]
    },
    "properties": {
      "Id": "cajeros_automaticos_red_banelco|40429",
      "Nombre": "Cajero Red Banelco en 274 - Hipólito Yrigoyen Y 251 - Bernardino Frione"
    }
  },
  {
    "type": "Feature",
    "id": "cajeros_automaticos_red_banelco|40342",
    "geometry": {
      "type": "Point",
      "coordinates": [-58.29005479999998, -34.7425676]
    },
    "properties": {
      "Id": "cajeros_automaticos_red_banelco|40342",
      "Nombre": "Cajero Red Banelco en 316 - Av. 12 de Octubre Y Avenida Calchaquí"
    }
  },
  {
    "type": "Feature",
    "id": "cajeros_automaticos_red_banelco|40106",
    "geometry": {
      "type": "Point",
      "coordinates": [-57.97387969999996, -34.90701389999999]
    },
    "properties": {
      "Id": "cajeros_automaticos_red_banelco|40106",
      "Nombre": "Cajero Red Banelco en 33 Y Avenida 13"
    }
  },
  {
    "type": "Feature",
    "id": "cajeros_automaticos_red_banelco|40725",
    "geometry": {
      "type": "Point",
      "coordinates": [-58.52526079999998, -34.55912509999999]
    },
    "properties": {
      "Id": "cajeros_automaticos_red_banelco|40725",
      "Nombre": "Cajero Red Banelco en 37 - Julio Argentino Roca Y Diagonal Sáenz Peña"
    }
  },
  {
    "type": "Feature",
    "id": "cajeros_automaticos_red_banelco|41163",
    "geometry": {
      "type": "Point",
      "coordinates": [-58.55877019999996, -34.4406414]
    },
    "properties": {
      "Id": "cajeros_automaticos_red_banelco|41163",
      "Nombre": "Cajero Red Banelco en 3 de Febrero Y Sarmiento"
    }
  },
  {
    "type": "Feature",
    "id": "cajeros_automaticos_red_banelco|41197",
    "geometry": {
      "type": "Point",
      "coordinates": [-58.558955499999975, -34.440581899999984]
    },
    "properties": {
      "Id": "cajeros_automaticos_red_banelco|41197",
      "Nombre": "Cajero Red Banelco en 3 de Febrero Y Sarmiento"
    }
  },
  {
    "type": "Feature",
    "id": "cajeros_automaticos_red_banelco|40744",
    "geometry": {
      "type": "Point",
      "coordinates": [-58.528122, -34.602248]
    },
    "properties": {
      "Id": "cajeros_automaticos_red_banelco|40744",
      "Nombre": "Cajero Red Banelco en 403 - Avenida América Y 401 - Gervasio de Posadas"
    }
  },
  {
    "type": "Feature",
    "id": "cajeros_automaticos_red_banelco|40673",
    "geometry": {
      "type": "Point",
      "coordinates": [-58.53947679999998, -34.58436489999998]
    },
    "properties": {
      "Id": "cajeros_automaticos_red_banelco|40673",
      "Nombre": "Cajero Red Banelco en 44 - Juárez Y Valentín Alsina"
    }
  },
  {
    "type": "Feature",
    "id": "cajeros_automaticos_red_banelco|41379",
    "geometry": {
      "type": "Point",
      "coordinates": [-58.53506769999998, -34.57994129999999]
    },
    "properties": {
      "Id": "cajeros_automaticos_red_banelco|41379",
      "Nombre": "Cajero Red Banelco en 46 - Lincoln Y 91 - San Martín"
    }
  },
  {
    "type": "Feature",
    "id": "cajeros_automaticos_red_banelco|39888",
    "geometry": {
      "type": "Point",
      "coordinates": [-57.952232, -34.911406399999976]
    },
    "properties": {
      "Id": "cajeros_automaticos_red_banelco|39888",
      "Nombre": "Cajero Red Banelco en 46 Y 6"
    }
  },
  {
    "type": "Feature",
    "id": "cajeros_automaticos_red_banelco|40521",
    "geometry": {
      "type": "Point",
      "coordinates": [-57.95230149999996, -34.911541]
    },
    "properties": {
      "Id": "cajeros_automaticos_red_banelco|40521",
      "Nombre": "Cajero Red Banelco en 46 Y 6"
    }
  },
  {
    "type": "Feature",
    "id": "cajeros_automaticos_red_banelco|40410",
    "geometry": {
      "type": "Point",
      "coordinates": [-57.95121079999998, -34.91198419999998]
    },
    "properties": {
      "Id": "cajeros_automaticos_red_banelco|40410",
      "Nombre": "Cajero Red Banelco en 47 Y 6"
    }
  },
  {
    "type": "Feature",
    "id": "cajeros_automaticos_red_banelco|40704",
    "geometry": {
      "type": "Point",
      "coordinates": [-57.95295, -34.9137567]
    },
    "properties": {
      "Id": "cajeros_automaticos_red_banelco|40704",
      "Nombre": "Cajero Red Banelco en 47 Y 8"
    }
  },
  {
    "type": "Feature",
    "id": "cajeros_automaticos_red_banelco|39983",
    "geometry": {
      "type": "Point",
      "coordinates": [-57.95361209999996, -34.91439389999997]
    },
    "properties": {
      "Id": "cajeros_automaticos_red_banelco|39983",
      "Nombre": "Cajero Red Banelco en 47 Y 8"
    }
  },
  {
    "type": "Feature",
    "id": "cajeros_automaticos_red_banelco|41204",
    "geometry": {
      "type": "Point",
      "coordinates": [-57.95309109999996, -34.913867]
    },
    "properties": {
      "Id": "cajeros_automaticos_red_banelco|41204",
      "Nombre": "Cajero Red Banelco en 47 Y 8"
    }
  },
  {
    "type": "Feature",
    "id": "cajeros_automaticos_red_banelco|40691",
    "geometry": {
      "type": "Point",
      "coordinates": [-57.95298359999998, -34.913891]
    },
    "properties": {
      "Id": "cajeros_automaticos_red_banelco|40691",
      "Nombre": "Cajero Red Banelco en 47 Y 8"
    }
  },
  {
    "type": "Feature",
    "id": "cajeros_automaticos_red_banelco|40434",
    "geometry": {
      "type": "Point",
      "coordinates": [-57.95285149999997, -34.913794799999984]
    },
    "properties": {
      "Id": "cajeros_automaticos_red_banelco|40434",
      "Nombre": "Cajero Red Banelco en 47 Y 8"
    }
  },
  {
    "type": "Feature",
    "id": "cajeros_automaticos_red_banelco|40381",
    "geometry": {
      "type": "Point",
      "coordinates": [-58.535349, -34.577256]
    },
    "properties": {
      "Id": "cajeros_automaticos_red_banelco|40381",
      "Nombre": "Cajero Red Banelco en 48 - Moreno Y 85 - Bonifacini"
    }
  },
  {
    "type": "Feature",
    "id": "cajeros_automaticos_red_banelco|39944",
    "geometry": {
      "type": "Point",
      "coordinates": [-58.53481819999996, -34.57745309999998]
    },
    "properties": {
      "Id": "cajeros_automaticos_red_banelco|39944",
      "Nombre": "Cajero Red Banelco en 48 - Moreno Y 85 - Bonifacini"
    }
  },
  {
    "type": "Feature",
    "id": "cajeros_automaticos_red_banelco|40380",
    "geometry": {
      "type": "Point",
      "coordinates": [-58.53051479999998, -34.57404779999999]
    },
    "properties": {
      "Id": "cajeros_automaticos_red_banelco|40380",
      "Nombre": "Cajero Red Banelco en 48 Saitta Y 71 - Las Heras"
    }
  },
  {
    "type": "Feature",
    "id": "cajeros_automaticos_red_banelco|41243",
    "geometry": {
      "type": "Point",
      "coordinates": [-58.5731449, -34.5854081]
    },
    "properties": {
      "Id": "cajeros_automaticos_red_banelco|41243",
      "Nombre": "Cajero Red Banelco en 504 - Víctor Hugo Y 575 - José Hernández"
    }
  },
  {
    "type": "Feature",
    "id": "cajeros_automaticos_red_banelco|40171",
    "geometry": {
      "type": "Point",
      "coordinates": [-57.99630809999997, -34.8904166]
    },
    "properties": {
      "Id": "cajeros_automaticos_red_banelco|40171",
      "Nombre": "Cajero Red Banelco en 513 Y Camino Centenario"
    }
  },
  {
    "type": "Feature",
    "id": "cajeros_automaticos_red_banelco|40197",
    "geometry": {
      "type": "Point",
      "coordinates": [-57.980957399999966, -34.901959]
    },
    "properties": {
      "Id": "cajeros_automaticos_red_banelco|40197",
      "Nombre": "Cajero Red Banelco en 527 Y Colectora Avenida 13"
    }
  },
  {
    "type": "Feature",
    "id": "cajeros_automaticos_red_banelco|41089",
    "geometry": {
      "type": "Point",
      "coordinates": [-58.535526, -34.576291]
    },
    "properties": {
      "Id": "cajeros_automaticos_red_banelco|41089",
      "Nombre": "Cajero Red Banelco en 52 - Belgrano Y 83 - Yapeyú"
    }
  },
  {
    "type": "Feature",
    "id": "cajeros_automaticos_red_banelco|40492",
    "geometry": {
      "type": "Point",
      "coordinates": [-58.58036749999997, -34.595045499999976]
    },
    "properties": {
      "Id": "cajeros_automaticos_red_banelco|40492",
      "Nombre": "Cajero Red Banelco en 538 - Avenida Presidente Juan Domingo Perón Y Calle interna"
    }
  },
  {
    "type": "Feature",
    "id": "cajeros_automaticos_red_banelco|40854",
    "geometry": {
      "type": "Point",
      "coordinates": [-58.58036749999997, -34.595045499999976]
    },
    "properties": {
      "Id": "cajeros_automaticos_red_banelco|40854",
      "Nombre": "Cajero Red Banelco en 538 - Avenida Presidente Juan Domingo Perón Y Calle interna"
    }
  },
  {
    "type": "Feature",
    "id": "cajeros_automaticos_red_banelco|41336",
    "geometry": {
      "type": "Point",
      "coordinates": [-58.56174149999996, -34.600890499999984]
    },
    "properties": {
      "Id": "cajeros_automaticos_red_banelco|41336",
      "Nombre": "Cajero Red Banelco en 538 - Wenceslao de Tata Y 643 - Avenida del Libertador General San Martín"
    }
  },
  {
    "type": "Feature",
    "id": "cajeros_automaticos_red_banelco|40476",
    "geometry": {
      "type": "Point",
      "coordinates": [-58.53726959999997, -34.575950599999985]
    },
    "properties": {
      "Id": "cajeros_automaticos_red_banelco|40476",
      "Nombre": "Cajero Red Banelco en 54 - Mitre Y 85 - Bonifacini"
    }
  },
  {
    "type": "Feature",
    "id": "cajeros_automaticos_red_banelco|40498",
    "geometry": {
      "type": "Point",
      "coordinates": [-58.53706689999998, -34.57557319999999]
    },
    "properties": {
      "Id": "cajeros_automaticos_red_banelco|40498",
      "Nombre": "Cajero Red Banelco en 54 - Mitre Y 85 - Bonifacini"
    }
  },
  {
    "type": "Feature",
    "id": "cajeros_automaticos_red_banelco|41278",
    "geometry": {
      "type": "Point",
      "coordinates": [-58.538572, -34.57676219999998]
    },
    "properties": {
      "Id": "cajeros_automaticos_red_banelco|41278",
      "Nombre": "Cajero Red Banelco en 54 - Mitre Y 91- San Lorenzo"
    }
  },
  {
    "type": "Feature",
    "id": "cajeros_automaticos_red_banelco|41297",
    "geometry": {
      "type": "Point",
      "coordinates": [-58.538375849999966, -34.57686615]
    },
    "properties": {
      "Id": "cajeros_automaticos_red_banelco|41297",
      "Nombre": "Cajero Red Banelco en 54 - Mitre Y 91- San Lorenzo"
    }
  },
  {
    "type": "Feature",
    "id": "cajeros_automaticos_red_banelco|40460",
    "geometry": {
      "type": "Point",
      "coordinates": [-58.570624, -34.588982]
    },
    "properties": {
      "Id": "cajeros_automaticos_red_banelco|40460",
      "Nombre": "Cajero Red Banelco en 559 - Luis María Bosch Y 508 - Gaucho Cruz"
    }
  },
  {
    "type": "Feature",
    "id": "cajeros_automaticos_red_banelco|41055",
    "geometry": {
      "type": "Point",
      "coordinates": [-58.537591799999966, -34.575282499999986]
    },
    "properties": {
      "Id": "cajeros_automaticos_red_banelco|41055",
      "Nombre": "Cajero Red Banelco en 56 - Matheu Y 85 - Bonifacini"
    }
  },
  {
    "type": "Feature",
    "id": "cajeros_automaticos_red_banelco|41098",
    "geometry": {
      "type": "Point",
      "coordinates": [-58.53801789999997, -34.57515649999998]
    },
    "properties": {
      "Id": "cajeros_automaticos_red_banelco|41098",
      "Nombre": "Cajero Red Banelco en 56 - Matheu Y 85 - Bonifacini"
    }
  },
  {
    "type": "Feature",
    "id": "cajeros_automaticos_red_banelco|40706",
    "geometry": {
      "type": "Point",
      "coordinates": [-58.539298, -34.57655]
    },
    "properties": {
      "Id": "cajeros_automaticos_red_banelco|40706",
      "Nombre": "Cajero Red Banelco en 56 - Matheu Y 91- San Lorenzo"
    }
  },
  {
    "type": "Feature",
    "id": "cajeros_automaticos_red_banelco|40666",
    "geometry": {
      "type": "Point",
      "coordinates": [-58.56203779999998, -34.60586949999998]
    },
    "properties": {
      "Id": "cajeros_automaticos_red_banelco|40666",
      "Nombre": "Cajero Red Banelco en 604 - Justo José de Urquiza Y 643 - Avenida del Libertador General San Martín"
    }
  },
  {
    "type": "Feature",
    "id": "cajeros_automaticos_red_banelco|40167",
    "geometry": {
      "type": "Point",
      "coordinates": [-58.56366989999998, -34.60587]
    },
    "properties": {
      "Id": "cajeros_automaticos_red_banelco|40167",
      "Nombre": "Cajero Red Banelco en 604 - Justo José de Urquiza Y 647 - 3 de Febrero"
    }
  },
  {
    "type": "Feature",
    "id": "cajeros_automaticos_red_banelco|40146",
    "geometry": {
      "type": "Point",
      "coordinates": [-58.568, -34.605491]
    },
    "properties": {
      "Id": "cajeros_automaticos_red_banelco|40146",
      "Nombre": "Cajero Red Banelco en 604 - Justo José de Urquiza Y 657 - Constitución"
    }
  },
  {
    "type": "Feature",
    "id": "cajeros_automaticos_red_banelco|40742",
    "geometry": {
      "type": "Point",
      "coordinates": [-58.54157119999997, -34.57481459999999]
    },
    "properties": {
      "Id": "cajeros_automaticos_red_banelco|40742",
      "Nombre": "Cajero Red Banelco en 60 - Rivadavia Y 91- San Lorenzo"
    }
  },
  {
    "type": "Feature",
    "id": "cajeros_automaticos_red_banelco|40514",
    "geometry": {
      "type": "Point",
      "coordinates": [-58.54235279999997, -34.57433179999999]
    },
    "properties": {
      "Id": "cajeros_automaticos_red_banelco|40514",
      "Nombre": "Cajero Red Banelco en 60 - Rivadavia Y 91- San Lorenzo"
    }
  },
  {
    "type": "Feature",
    "id": "cajeros_automaticos_red_banelco|40940",
    "geometry": {
      "type": "Point",
      "coordinates": [-58.56215469999999, -34.60848129999999]
    },
    "properties": {
      "Id": "cajeros_automaticos_red_banelco|40940",
      "Nombre": "Cajero Red Banelco en 610 - Mariano Moreno Y 643 - Avenida del Libertador General San Martín"
    }
  },
  {
    "type": "Feature",
    "id": "cajeros_automaticos_red_banelco|39749",
    "geometry": {
      "type": "Point",
      "coordinates": [-58.562203699999976, -34.60867369999998]
    },
    "properties": {
      "Id": "cajeros_automaticos_red_banelco|39749",
      "Nombre": "Cajero Red Banelco en 614 - Nuestra Señora de la Merced Y 643 - Avenida del Libertador General San Martín"
    }
  },
  {
    "type": "Feature",
    "id": "cajeros_automaticos_red_banelco|41311",
    "geometry": {
      "type": "Point",
      "coordinates": [-58.552927199999964, -34.55066429999999]
    },
    "properties": {
      "Id": "cajeros_automaticos_red_banelco|41311",
      "Nombre": "Cajero Red Banelco en 63 Pacífico Rodríguez Y 110 Pueyrredón"
    }
  },
  {
    "type": "Feature",
    "id": "cajeros_automaticos_red_banelco|39894",
    "geometry": {
      "type": "Point",
      "coordinates": [-58.554897, -34.548811]
    },
    "properties": {
      "Id": "cajeros_automaticos_red_banelco|39894",
      "Nombre": "Cajero Red Banelco en 63 Pacífico Rodríguez Y 118 Lavalle"
    }
  },
  {
    "type": "Feature",
    "id": "cajeros_automaticos_red_banelco|40811",
    "geometry": {
      "type": "Point",
      "coordinates": [-58.56037929999999, -34.5918926]
    },
    "properties": {
      "Id": "cajeros_automaticos_red_banelco|40811",
      "Nombre": "Cajero Red Banelco en 643 - Avenida del Libertador General San Martín Y 56 - 1 de Mayo"
    }
  },
  {
    "type": "Feature",
    "id": "cajeros_automaticos_red_banelco|41026",
    "geometry": {
      "type": "Point",
      "coordinates": [-58.55445169999997, -34.552069699999976]
    },
    "properties": {
      "Id": "cajeros_automaticos_red_banelco|41026",
      "Nombre": "Cajero Red Banelco en 69 - Doctor Aleu Y 110 Pueyrredón"
    }
  },
  {
    "type": "Feature",
    "id": "cajeros_automaticos_red_banelco|40892",
    "geometry": {
      "type": "Point",
      "coordinates": [-58.54133879999998, -34.56236559999997]
    },
    "properties": {
      "Id": "cajeros_automaticos_red_banelco|40892",
      "Nombre": "Cajero Red Banelco en 69 - Doctor Aleu Y 76 J. M. Campos"
    }
  },
  {
    "type": "Feature",
    "id": "cajeros_automaticos_red_banelco|40683",
    "geometry": {
      "type": "Point",
      "coordinates": [-58.543591, -34.560279]
    },
    "properties": {
      "Id": "cajeros_automaticos_red_banelco|40683",
      "Nombre": "Cajero Red Banelco en 69 - Doctor Aleu Y 82 Intendente Alvear"
    }
  },
  {
    "type": "Feature",
    "id": "cajeros_automaticos_red_banelco|40343",
    "geometry": {
      "type": "Point",
      "coordinates": [-58.537697, -34.56125919999999]
    },
    "properties": {
      "Id": "cajeros_automaticos_red_banelco|40343",
      "Nombre": "Cajero Red Banelco en 76 J. M. Campos Y 61 - Juan B. Alberdi"
    }
  },
  {
    "type": "Feature",
    "id": "cajeros_automaticos_red_banelco|40026",
    "geometry": {
      "type": "Point",
      "coordinates": [-58.5268472, -34.57964559999997]
    },
    "properties": {
      "Id": "cajeros_automaticos_red_banelco|40026",
      "Nombre": "Cajero Red Banelco en 79 - 25 de Mayo Y 34 - Francia"
    }
  },
  {
    "type": "Feature",
    "id": "cajeros_automaticos_red_banelco|39933",
    "geometry": {
      "type": "Point",
      "coordinates": [-58.529767699999965, -34.582766499999984]
    },
    "properties": {
      "Id": "cajeros_automaticos_red_banelco|39933",
      "Nombre": "Cajero Red Banelco en 85 - Avenida Libertador General San Martín Y Pasaje Gil"
    }
  },
  {
    "type": "Feature",
    "id": "cajeros_automaticos_red_banelco|39755",
    "geometry": {
      "type": "Point",
      "coordinates": [-58.53532419999998, -34.5785315]
    },
    "properties": {
      "Id": "cajeros_automaticos_red_banelco|39755",
      "Nombre": "Cajero Red Banelco en 89 - Intendente A. M. Campos Y 48 - Moreno"
    }
  },
  {
    "type": "Feature",
    "id": "cajeros_automaticos_red_banelco|40064",
    "geometry": {
      "type": "Point",
      "coordinates": [-58.535349199999956, -34.5783148]
    },
    "properties": {
      "Id": "cajeros_automaticos_red_banelco|40064",
      "Nombre": "Cajero Red Banelco en 89 - Intendente A. M. Campos Y 48 - Moreno"
    }
  },
  {
    "type": "Feature",
    "id": "cajeros_automaticos_red_banelco|40469",
    "geometry": {
      "type": "Point",
      "coordinates": [-58.53570039999998, -34.57809909999999]
    },
    "properties": {
      "Id": "cajeros_automaticos_red_banelco|40469",
      "Nombre": "Cajero Red Banelco en 89 - Intendente A. M. Campos Y 48 - Moreno"
    }
  },
  {
    "type": "Feature",
    "id": "cajeros_automaticos_red_banelco|40126",
    "geometry": {
      "type": "Point",
      "coordinates": [-58.2880111, -34.808677399999986]
    },
    "properties": {
      "Id": "cajeros_automaticos_red_banelco|40126",
      "Nombre": "Cajero Red Banelco en 90 - Jorge Newbery Y 77 - Gervasio A. de Posadas"
    }
  },
  {
    "type": "Feature",
    "id": "cajeros_automaticos_red_banelco|40793",
    "geometry": {
      "type": "Point",
      "coordinates": [-58.557152399999985, -34.5630864]
    },
    "properties": {
      "Id": "cajeros_automaticos_red_banelco|40793",
      "Nombre": "Cajero Red Banelco en 96 - H. Rivero Y 95 - San Lorenzo"
    }
  },
  {
    "type": "Feature",
    "id": "cajeros_automaticos_red_banelco|41066",
    "geometry": {
      "type": "Point",
      "coordinates": [-58.623784099999966, -34.56499269999998]
    },
    "properties": {
      "Id": "cajeros_automaticos_red_banelco|41066",
      "Nombre": "Cajero Red Banelco en 971 - Jerónimo Salguerdo Y 954 - Avenida Presidente Juan Domingo Perón"
    }
  },
  {
    "type": "Feature",
    "id": "cajeros_automaticos_red_banelco|40686",
    "geometry": {
      "type": "Point",
      "coordinates": [-58.382432199999975, -34.59011979999999]
    },
    "properties": {
      "Id": "cajeros_automaticos_red_banelco|40686",
      "Nombre": "Cajero Red Banelco en 9 DE JULIO AV. Y POSADAS"
    }
  },
  {
    "type": "Feature",
    "id": "cajeros_automaticos_red_banelco|39801",
    "geometry": {
      "type": "Point",
      "coordinates": [-58.28075, -34.70971789999999]
    },
    "properties": {
      "Id": "cajeros_automaticos_red_banelco|39801",
      "Nombre": "Cajero Red Banelco en 9 de Julio Y Avenida San Martín"
    }
  },
  {
    "type": "Feature",
    "id": "cajeros_automaticos_red_banelco|41001",
    "geometry": {
      "type": "Point",
      "coordinates": [-58.28190759999997, -34.71170449999999]
    },
    "properties": {
      "Id": "cajeros_automaticos_red_banelco|41001",
      "Nombre": "Cajero Red Banelco en 9 de Julio Y Belgrano"
    }
  },
  {
    "type": "Feature",
    "id": "cajeros_automaticos_red_banelco|39928",
    "geometry": {
      "type": "Point",
      "coordinates": [-58.51137729999998, -34.46879039999998]
    },
    "properties": {
      "Id": "cajeros_automaticos_red_banelco|39928",
      "Nombre": "Cajero Red Banelco en 9 de Julio Y Juan José Díaz"
    }
  },
  {
    "type": "Feature",
    "id": "cajeros_automaticos_red_banelco|40044",
    "geometry": {
      "type": "Point",
      "coordinates": [-58.90525, -34.45045]
    },
    "properties": {
      "Id": "cajeros_automaticos_red_banelco|40044",
      "Nombre": "Cajero Red Banelco en 9 de Julio Y Julio Argentino Roca"
    }
  },
  {
    "type": "Feature",
    "id": "cajeros_automaticos_red_banelco|40800",
    "geometry": {
      "type": "Point",
      "coordinates": [-58.619039299999976, -34.651784099999986]
    },
    "properties": {
      "Id": "cajeros_automaticos_red_banelco|40800",
      "Nombre": "Cajero Red Banelco en 9 de Julio Y Nuestra Señora del Buen Viaje"
    }
  },
  {
    "type": "Feature",
    "id": "cajeros_automaticos_red_banelco|40002",
    "geometry": {
      "type": "Point",
      "coordinates": [-58.618675, -34.651823]
    },
    "properties": {
      "Id": "cajeros_automaticos_red_banelco|40002",
      "Nombre": "Cajero Red Banelco en 9 de Julio Y Nuestra Señora del Buen Viaje"
    }
  },
  {
    "type": "Feature",
    "id": "cajeros_automaticos_red_banelco|41242",
    "geometry": {
      "type": "Point",
      "coordinates": [-58.61874749999998, -34.651789799999975]
    },
    "properties": {
      "Id": "cajeros_automaticos_red_banelco|41242",
      "Nombre": "Cajero Red Banelco en 9 de Julio Y Nuestra Señora del Buen Viaje"
    }
  },
  {
    "type": "Feature",
    "id": "cajeros_automaticos_red_banelco|39842",
    "geometry": {
      "type": "Point",
      "coordinates": [-58.6189, -34.6518]
    },
    "properties": {
      "Id": "cajeros_automaticos_red_banelco|39842",
      "Nombre": "Cajero Red Banelco en 9 de Julio Y Nuestra Señora del Buen Viaje"
    }
  },
  {
    "type": "Feature",
    "id": "cajeros_automaticos_red_banelco|40035",
    "geometry": {
      "type": "Point",
      "coordinates": [-58.895864299999964, -34.46504509999997]
    },
    "properties": {
      "Id": "cajeros_automaticos_red_banelco|40035",
      "Nombre": "Cajero Red Banelco en 9 de Julio Y Oliverio Girondo"
    }
  },
  {
    "type": "Feature",
    "id": "cajeros_automaticos_red_banelco|39975",
    "geometry": {
      "type": "Point",
      "coordinates": [-57.95279849999998, -34.915180699999986]
    },
    "properties": {
      "Id": "cajeros_automaticos_red_banelco|39975",
      "Nombre": "Cajero Red Banelco en 9 Y 48"
    }
  },
  {
    "type": "Feature",
    "id": "cajeros_automaticos_red_banelco|40846",
    "geometry": {
      "type": "Point",
      "coordinates": [-58.791382, -34.63400989999999]
    },
    "properties": {
      "Id": "cajeros_automaticos_red_banelco|40846",
      "Nombre": "Cajero Red Banelco en Acceso Oeste Y Avenida Enrique Victorica"
    }
  },
  {
    "type": "Feature",
    "id": "cajeros_automaticos_red_banelco|41169",
    "geometry": {
      "type": "Point",
      "coordinates": [-58.4568882, -34.654029399999985]
    },
    "properties": {
      "Id": "cajeros_automaticos_red_banelco|41169",
      "Nombre": "Cajero Red Banelco en ACOSTA, MARIANO Y CASTAÑARES AV."
    }
  },
  {
    "type": "Feature",
    "id": "cajeros_automaticos_red_banelco|40618",
    "geometry": {
      "type": "Point",
      "coordinates": [-58.440137, -34.60707159999998]
    },
    "properties": {
      "Id": "cajeros_automaticos_red_banelco|40618",
      "Nombre": "Cajero Red Banelco en ACOYTE Y DAVEL, DESIDERIO FERNANDO, DR."
    }
  },
  {
    "type": "Feature",
    "id": "cajeros_automaticos_red_banelco|40549",
    "geometry": {
      "type": "Point",
      "coordinates": [-58.42169049999997, -34.597268]
    },
    "properties": {
      "Id": "cajeros_automaticos_red_banelco|40549",
      "Nombre": "Cajero Red Banelco en ACUÑA DE FIGUEROA, FRANCISCO Y CORDOBA AV."
    }
  },
  {
    "type": "Feature",
    "id": "cajeros_automaticos_red_banelco|40254",
    "geometry": {
      "type": "Point",
      "coordinates": [-58.556196, -34.441601]
    },
    "properties": {
      "Id": "cajeros_automaticos_red_banelco|40254",
      "Nombre": "Cajero Red Banelco en Adolfo Alsina Y Constitución"
    }
  },
  {
    "type": "Feature",
    "id": "cajeros_automaticos_red_banelco|40581",
    "geometry": {
      "type": "Point",
      "coordinates": [-58.477944, -34.53448479999999]
    },
    "properties": {
      "Id": "cajeros_automaticos_red_banelco|40581",
      "Nombre": "Cajero Red Banelco en Adolfo Alsina Y Metrobús Norte"
    }
  },
  {
    "type": "Feature",
    "id": "cajeros_automaticos_red_banelco|41074",
    "geometry": {
      "type": "Point",
      "coordinates": [-58.47813909999998, -34.5339945]
    },
    "properties": {
      "Id": "cajeros_automaticos_red_banelco|41074",
      "Nombre": "Cajero Red Banelco en Adolfo Alsina Y Metrobús Norte"
    }
  },
  {
    "type": "Feature",
    "id": "cajeros_automaticos_red_banelco|40590",
    "geometry": {
      "type": "Point",
      "coordinates": [-58.39758297999999, -34.58716203]
    },
    "properties": {
      "Id": "cajeros_automaticos_red_banelco|40590",
      "Nombre": "Cajero Red Banelco en AGOTE, LUIS DR. Y GELLY Y OBES, GRAL. AV."
    }
  },
  {
    "type": "Feature",
    "id": "cajeros_automaticos_red_banelco|41056",
    "geometry": {
      "type": "Point",
      "coordinates": [-58.397458, -34.586957]
    },
    "properties": {
      "Id": "cajeros_automaticos_red_banelco|41056",
      "Nombre": "Cajero Red Banelco en AGOTE, LUIS DR. Y GELLY Y OBES, GRAL. AV."
    }
  },
  {
    "type": "Feature",
    "id": "cajeros_automaticos_red_banelco|40945",
    "geometry": {
      "type": "Point",
      "coordinates": [-58.27744529999997, -34.759077]
    },
    "properties": {
      "Id": "cajeros_automaticos_red_banelco|40945",
      "Nombre": "Cajero Red Banelco en Agote Y Calle 379 Bis"
    }
  },
  {
    "type": "Feature",
    "id": "cajeros_automaticos_red_banelco|41257",
    "geometry": {
      "type": "Point",
      "coordinates": [-58.27744529999997, -34.759077]
    },
    "properties": {
      "Id": "cajeros_automaticos_red_banelco|41257",
      "Nombre": "Cajero Red Banelco en Agote Y Calle 379 Bis"
    }
  },
  {
    "type": "Feature",
    "id": "cajeros_automaticos_red_banelco|41158",
    "geometry": {
      "type": "Point",
      "coordinates": [-58.41159581963736, -34.60262147914105]
    },
    "properties": {
      "Id": "cajeros_automaticos_red_banelco|41158",
      "Nombre": "Cajero Red Banelco en AGUERO 628"
    }
  },
  {
    "type": "Feature",
    "id": "cajeros_automaticos_red_banelco|40594",
    "geometry": {
      "type": "Point",
      "coordinates": [-58.443645299999964, -34.59007149999998]
    },
    "properties": {
      "Id": "cajeros_automaticos_red_banelco|40594",
      "Nombre": "Cajero Red Banelco en AGUIRRE Y FITZ ROY"
    }
  },
  {
    "type": "Feature",
    "id": "cajeros_automaticos_red_banelco|41030",
    "geometry": {
      "type": "Point",
      "coordinates": [-58.49968789999998, -34.4890992]
    },
    "properties": {
      "Id": "cajeros_automaticos_red_banelco|41030",
      "Nombre": "Cajero Red Banelco en Albarellos Y General Alvear"
    }
  },
  {
    "type": "Feature",
    "id": "cajeros_automaticos_red_banelco|40246",
    "geometry": {
      "type": "Point",
      "coordinates": [-58.48288509999997, -34.63896419999998]
    },
    "properties": {
      "Id": "cajeros_automaticos_red_banelco|40246",
      "Nombre": "Cajero Red Banelco en ALBERDI, JUAN BAUTISTA AV. Y LACARRA"
    }
  },
  {
    "type": "Feature",
    "id": "cajeros_automaticos_red_banelco|39913",
    "geometry": {
      "type": "Point",
      "coordinates": [-58.50291149999997, -34.65178279999998]
    },
    "properties": {
      "Id": "cajeros_automaticos_red_banelco|39913",
      "Nombre": "Cajero Red Banelco en ALBERDI, JUAN BAUTISTA AV. Y PIERES"
    }
  },
  {
    "type": "Feature",
    "id": "cajeros_automaticos_red_banelco|40096",
    "geometry": {
      "type": "Point",
      "coordinates": [-58.50689109999997, -34.655298899999984]
    },
    "properties": {
      "Id": "cajeros_automaticos_red_banelco|40096",
      "Nombre": "Cajero Red Banelco en ALBERDI, JUAN BAUTISTA AV. Y PILAR"
    }
  },
  {
    "type": "Feature",
    "id": "cajeros_automaticos_red_banelco|40349",
    "geometry": {
      "type": "Point",
      "coordinates": [-58.507604, -34.655648]
    },
    "properties": {
      "Id": "cajeros_automaticos_red_banelco|40349",
      "Nombre": "Cajero Red Banelco en ALBERDI, JUAN BAUTISTA AV. Y PILAR"
    }
  },
  {
    "type": "Feature",
    "id": "cajeros_automaticos_red_banelco|41195",
    "geometry": {
      "type": "Point",
      "coordinates": [-58.51536129999998, -34.66077869999999]
    },
    "properties": {
      "Id": "cajeros_automaticos_red_banelco|41195",
      "Nombre": "Cajero Red Banelco en ALBERDI, JUAN BAUTISTA AV. Y SUAREZ, JOSE LEON"
    }
  },
  {
    "type": "Feature",
    "id": "cajeros_automaticos_red_banelco|41085",
    "geometry": {
      "type": "Point",
      "coordinates": [-58.798835799999964, -34.3514175]
    },
    "properties": {
      "Id": "cajeros_automaticos_red_banelco|41085",
      "Nombre": "Cajero Red Banelco en Alberdi Y Eugenia Tapia de Cruz"
    }
  },
  {
    "type": "Feature",
    "id": "cajeros_automaticos_red_banelco|40815",
    "geometry": {
      "type": "Point",
      "coordinates": [-58.798835799999964, -34.3514175]
    },
    "properties": {
      "Id": "cajeros_automaticos_red_banelco|40815",
      "Nombre": "Cajero Red Banelco en Alberdi Y Eugenia Tapia de Cruz"
    }
  },
  {
    "type": "Feature",
    "id": "cajeros_automaticos_red_banelco|40808",
    "geometry": {
      "type": "Point",
      "coordinates": [-57.90232289999996, -34.8613096]
    },
    "properties": {
      "Id": "cajeros_automaticos_red_banelco|40808",
      "Nombre": "Cajero Red Banelco en Alberdi Y La Merced"
    }
  },
  {
    "type": "Feature",
    "id": "cajeros_automaticos_red_banelco|40084",
    "geometry": {
      "type": "Point",
      "coordinates": [-58.522426, -34.678491]
    },
    "properties": {
      "Id": "cajeros_automaticos_red_banelco|40084",
      "Nombre": "Cajero Red Banelco en Alberti Y Avenida General San Martín"
    }
  },
  {
    "type": "Feature",
    "id": "cajeros_automaticos_red_banelco|39966",
    "geometry": {
      "type": "Point",
      "coordinates": [-58.401716, -34.61044659999998]
    },
    "properties": {
      "Id": "cajeros_automaticos_red_banelco|39966",
      "Nombre": "Cajero Red Banelco en ALBERTI Y YRIGOYEN, HIPOLITO"
    }
  },
  {
    "type": "Feature",
    "id": "cajeros_automaticos_red_banelco|39766",
    "geometry": {
      "type": "Point",
      "coordinates": [-58.40320039999997, -34.647525]
    },
    "properties": {
      "Id": "cajeros_automaticos_red_banelco|39766",
      "Nombre": "Cajero Red Banelco en ALCORTA, AMANCIO AV. Y ANCASTE"
    }
  },
  {
    "type": "Feature",
    "id": "cajeros_automaticos_red_banelco|40732",
    "geometry": {
      "type": "Point",
      "coordinates": [-58.37199749999998, -34.59534839999998]
    },
    "properties": {
      "Id": "cajeros_automaticos_red_banelco|40732",
      "Nombre": "Cajero Red Banelco en ALEM, LEANDRO N. AV. Y BUTTY, E., ING."
    }
  },
  {
    "type": "Feature",
    "id": "cajeros_automaticos_red_banelco|40643",
    "geometry": {
      "type": "Point",
      "coordinates": [-58.371918499999985, -34.596158299999985]
    },
    "properties": {
      "Id": "cajeros_automaticos_red_banelco|40643",
      "Nombre": "Cajero Red Banelco en ALEM, LEANDRO N. AV. Y BUTTY, E., ING."
    }
  },
  {
    "type": "Feature",
    "id": "cajeros_automaticos_red_banelco|40319",
    "geometry": {
      "type": "Point",
      "coordinates": [-58.37086229999996, -34.597657099999985]
    },
    "properties": {
      "Id": "cajeros_automaticos_red_banelco|40319",
      "Nombre": "Cajero Red Banelco en ALEM, LEANDRO N. AV. Y CORDOBA AV."
    }
  },
  {
    "type": "Feature",
    "id": "cajeros_automaticos_red_banelco|41171",
    "geometry": {
      "type": "Point",
      "coordinates": [-58.37237089999997, -34.594256]
    },
    "properties": {
      "Id": "cajeros_automaticos_red_banelco|41171",
      "Nombre": "Cajero Red Banelco en ALEM, LEANDRO N. AV. Y DELLA PAOLERA, CARLOS M."
    }
  },
  {
    "type": "Feature",
    "id": "cajeros_automaticos_red_banelco|40942",
    "geometry": {
      "type": "Point",
      "coordinates": [-58.372632899999964, -34.59476839999998]
    },
    "properties": {
      "Id": "cajeros_automaticos_red_banelco|40942",
      "Nombre": "Cajero Red Banelco en ALEM, LEANDRO N. AV. Y DELLA PAOLERA, CARLOS M."
    }
  },
  {
    "type": "Feature",
    "id": "cajeros_automaticos_red_banelco|40876",
    "geometry": {
      "type": "Point",
      "coordinates": [-58.37375549999997, -34.5937087]
    },
    "properties": {
      "Id": "cajeros_automaticos_red_banelco|40876",
      "Nombre": "Cajero Red Banelco en ALEM, LEANDRO N. AV. Y DEL LIBERTADOR AV."
    }
  },
  {
    "type": "Feature",
    "id": "cajeros_automaticos_red_banelco|41071",
    "geometry": {
      "type": "Point",
      "coordinates": [-58.37382269999998, -34.59399159999999]
    },
    "properties": {
      "Id": "cajeros_automaticos_red_banelco|41071",
      "Nombre": "Cajero Red Banelco en ALEM, LEANDRO N. AV. Y DEL LIBERTADOR AV."
    }
  },
  {
    "type": "Feature",
    "id": "cajeros_automaticos_red_banelco|41096",
    "geometry": {
      "type": "Point",
      "coordinates": [-58.37078429999997, -34.6021695]
    },
    "properties": {
      "Id": "cajeros_automaticos_red_banelco|41096",
      "Nombre": "Cajero Red Banelco en ALEM, LEANDRO N. AV. Y LAVALLE"
    }
  },
  {
    "type": "Feature",
    "id": "cajeros_automaticos_red_banelco|40528",
    "geometry": {
      "type": "Point",
      "coordinates": [-58.37025469999997, -34.60650619999998]
    },
    "properties": {
      "Id": "cajeros_automaticos_red_banelco|40528",
      "Nombre": "Cajero Red Banelco en ALEM, LEANDRO N. AV. Y MITRE, BARTOLOME"
    }
  },
  {
    "type": "Feature",
    "id": "cajeros_automaticos_red_banelco|41358",
    "geometry": {
      "type": "Point",
      "coordinates": [-58.37108909999997, -34.59660609999999]
    },
    "properties": {
      "Id": "cajeros_automaticos_red_banelco|41358",
      "Nombre": "Cajero Red Banelco en ALEM, LEANDRO N. AV. Y PARAGUAY"
    }
  },
  {
    "type": "Feature",
    "id": "cajeros_automaticos_red_banelco|39916",
    "geometry": {
      "type": "Point",
      "coordinates": [-58.373657, -34.594173]
    },
    "properties": {
      "Id": "cajeros_automaticos_red_banelco|39916",
      "Nombre": "Cajero Red Banelco en ALEM, LEANDRO N. AV. Y RECONQUISTA"
    }
  },
  {
    "type": "Feature",
    "id": "cajeros_automaticos_red_banelco|41176",
    "geometry": {
      "type": "Point",
      "coordinates": [-58.37263619999998, -34.59547]
    },
    "properties": {
      "Id": "cajeros_automaticos_red_banelco|41176",
      "Nombre": "Cajero Red Banelco en ALEM, LEANDRO N. AV. Y ROJAS, RICARDO, DR."
    }
  },
  {
    "type": "Feature",
    "id": "cajeros_automaticos_red_banelco|39815",
    "geometry": {
      "type": "Point",
      "coordinates": [-58.3717, -34.5978]
    },
    "properties": {
      "Id": "cajeros_automaticos_red_banelco|39815",
      "Nombre": "Cajero Red Banelco en ALEM, LEANDRO N. AV. Y TRES SARGENTOS"
    }
  },
  {
    "type": "Feature",
    "id": "cajeros_automaticos_red_banelco|40538",
    "geometry": {
      "type": "Point",
      "coordinates": [-58.521455, -34.510502]
    },
    "properties": {
      "Id": "cajeros_automaticos_red_banelco|40538",
      "Nombre": "Cajero Red Banelco en Alférez Hipólito Bouchard Y Nicolás Repetto"
    }
  },
  {
    "type": "Feature",
    "id": "cajeros_automaticos_red_banelco|39923",
    "geometry": {
      "type": "Point",
      "coordinates": [-58.51131209999997, -34.6803367]
    },
    "properties": {
      "Id": "cajeros_automaticos_red_banelco|39923",
      "Nombre": "Cajero Red Banelco en Alfredo Lorenzo Palacios Y Crovara"
    }
  },
  {
    "type": "Feature",
    "id": "cajeros_automaticos_red_banelco|40225",
    "geometry": {
      "type": "Point",
      "coordinates": [-58.36595572130247, -34.61414225266395]
    },
    "properties": {
      "Id": "cajeros_automaticos_red_banelco|40225",
      "Nombre": "Cajero Red Banelco en ALICIA M. DE JUSTO 1370"
    }
  },
  {
    "type": "Feature",
    "id": "cajeros_automaticos_red_banelco|40066",
    "geometry": {
      "type": "Point",
      "coordinates": [-58.41161839999998, -34.639479199999975]
    },
    "properties": {
      "Id": "cajeros_automaticos_red_banelco|40066",
      "Nombre": "Cajero Red Banelco en ALMAFUERTE AV. Y USPALLATA"
    }
  },
  {
    "type": "Feature",
    "id": "cajeros_automaticos_red_banelco|40085",
    "geometry": {
      "type": "Point",
      "coordinates": [-58.55418995999998, -34.682129989999986]
    },
    "properties": {
      "Id": "cajeros_automaticos_red_banelco|40085",
      "Nombre": "Cajero Red Banelco en Almafuerte Y Avenida Brigadier General Juan Manuel de Rosas"
    }
  },
  {
    "type": "Feature",
    "id": "cajeros_automaticos_red_banelco|41300",
    "geometry": {
      "type": "Point",
      "coordinates": [-58.55968093999996, -34.678009029999984]
    },
    "properties": {
      "Id": "cajeros_automaticos_red_banelco|41300",
      "Nombre": "Cajero Red Banelco en Almafuerte Y Presidente Hipólito Yrigoyen"
    }
  },
  {
    "type": "Feature",
    "id": "cajeros_automaticos_red_banelco|41233",
    "geometry": {
      "type": "Point",
      "coordinates": [-58.55949179999999, -34.67789]
    },
    "properties": {
      "Id": "cajeros_automaticos_red_banelco|41233",
      "Nombre": "Cajero Red Banelco en Almafuerte Y Presidente Hipólito Yrigoyen"
    }
  },
  {
    "type": "Feature",
    "id": "cajeros_automaticos_red_banelco|41115",
    "geometry": {
      "type": "Point",
      "coordinates": [-58.55967079999997, -34.67803669999998]
    },
    "properties": {
      "Id": "cajeros_automaticos_red_banelco|41115",
      "Nombre": "Cajero Red Banelco en Almafuerte Y Presidente Hipólito Yrigoyen"
    }
  },
  {
    "type": "Feature",
    "id": "cajeros_automaticos_red_banelco|41203",
    "geometry": {
      "type": "Point",
      "coordinates": [-58.55945019999998, -34.678001899999984]
    },
    "properties": {
      "Id": "cajeros_automaticos_red_banelco|41203",
      "Nombre": "Cajero Red Banelco en Almafuerte Y Presidente Hipólito Yrigoyen"
    }
  },
  {
    "type": "Feature",
    "id": "cajeros_automaticos_red_banelco|39717",
    "geometry": {
      "type": "Point",
      "coordinates": [-58.55968869999998, -34.6775222]
    },
    "properties": {
      "Id": "cajeros_automaticos_red_banelco|39717",
      "Nombre": "Cajero Red Banelco en Almafuerte Y Presidente Hipólito Yrigoyen"
    }
  },
  {
    "type": "Feature",
    "id": "cajeros_automaticos_red_banelco|41031",
    "geometry": {
      "type": "Point",
      "coordinates": [-58.56219769999998, -34.6760179]
    },
    "properties": {
      "Id": "cajeros_automaticos_red_banelco|41031",
      "Nombre": "Cajero Red Banelco en Almafuerte Y Salta"
    }
  },
  {
    "type": "Feature",
    "id": "cajeros_automaticos_red_banelco|40550",
    "geometry": {
      "type": "Point",
      "coordinates": [-58.56142059999996, -34.6771121]
    },
    "properties": {
      "Id": "cajeros_automaticos_red_banelco|40550",
      "Nombre": "Cajero Red Banelco en Almafuerte Y Tomás Justo Villegas"
    }
  },
  {
    "type": "Feature",
    "id": "cajeros_automaticos_red_banelco|39953",
    "geometry": {
      "type": "Point",
      "coordinates": [-58.39363869999996, -34.7738041]
    },
    "properties": {
      "Id": "cajeros_automaticos_red_banelco|39953",
      "Nombre": "Cajero Red Banelco en Almirante Brown Y 14 de Julio"
    }
  },
  {
    "type": "Feature",
    "id": "cajeros_automaticos_red_banelco|40168",
    "geometry": {
      "type": "Point",
      "coordinates": [-58.622786199999986, -34.650056]
    },
    "properties": {
      "Id": "cajeros_automaticos_red_banelco|40168",
      "Nombre": "Cajero Red Banelco en Almirante Brown Y General José de San Martín"
    }
  },
  {
    "type": "Feature",
    "id": "cajeros_automaticos_red_banelco|40561",
    "geometry": {
      "type": "Point",
      "coordinates": [-58.62215369999998, -34.6504278]
    },
    "properties": {
      "Id": "cajeros_automaticos_red_banelco|40561",
      "Nombre": "Cajero Red Banelco en Almirante Brown Y General José de San Martín"
    }
  },
  {
    "type": "Feature",
    "id": "cajeros_automaticos_red_banelco|39736",
    "geometry": {
      "type": "Point",
      "coordinates": [-58.25638129999997, -34.721643899999975]
    },
    "properties": {
      "Id": "cajeros_automaticos_red_banelco|39736",
      "Nombre": "Cajero Red Banelco en Almirante Brown Y Peatonal Rivadavia"
    }
  },
  {
    "type": "Feature",
    "id": "cajeros_automaticos_red_banelco|40234",
    "geometry": {
      "type": "Point",
      "coordinates": [-58.385303882418135, -34.611216542193276]
    },
    "properties": {
      "Id": "cajeros_automaticos_red_banelco|40234",
      "Nombre": "Cajero Red Banelco en ALSINA 1338"
    }
  },
  {
    "type": "Feature",
    "id": "cajeros_automaticos_red_banelco|41273",
    "geometry": {
      "type": "Point",
      "coordinates": [-58.39898089999996, -34.611978]
    },
    "properties": {
      "Id": "cajeros_automaticos_red_banelco|41273",
      "Nombre": "Cajero Red Banelco en ALSINA, ADOLFO Y PICHINCHA"
    }
  },
  {
    "type": "Feature",
    "id": "cajeros_automaticos_red_banelco|40937",
    "geometry": {
      "type": "Point",
      "coordinates": [-58.46465519999998, -34.60308609999998]
    },
    "properties": {
      "Id": "cajeros_automaticos_red_banelco|40937",
      "Nombre": "Cajero Red Banelco en ALVAREZ, DONATO, TTE. GRAL. AV. Y SAN BLAS"
    }
  },
  {
    "type": "Feature",
    "id": "cajeros_automaticos_red_banelco|41124",
    "geometry": {
      "type": "Point",
      "coordinates": [-58.464864, -34.602722599999986]
    },
    "properties": {
      "Id": "cajeros_automaticos_red_banelco|41124",
      "Nombre": "Cajero Red Banelco en ALVAREZ, DONATO, TTE. GRAL. AV. Y SAN MARTIN AV."
    }
  },
  {
    "type": "Feature",
    "id": "cajeros_automaticos_red_banelco|40956",
    "geometry": {
      "type": "Point",
      "coordinates": [-58.520819, -34.633379]
    },
    "properties": {
      "Id": "cajeros_automaticos_red_banelco|40956",
      "Nombre": "Cajero Red Banelco en ALVAREZ JONTE AV. Y JUSTO, JUAN B. AV."
    }
  },
  {
    "type": "Feature",
    "id": "cajeros_automaticos_red_banelco|40142",
    "geometry": {
      "type": "Point",
      "coordinates": [-58.47117969999998, -34.6036569]
    },
    "properties": {
      "Id": "cajeros_automaticos_red_banelco|40142",
      "Nombre": "Cajero Red Banelco en ALVAREZ JONTE Y LAMAS, ANDRES"
    }
  },
  {
    "type": "Feature",
    "id": "cajeros_automaticos_red_banelco|40525",
    "geometry": {
      "type": "Point",
      "coordinates": [-58.4494676, -34.58111439999998]
    },
    "properties": {
      "Id": "cajeros_automaticos_red_banelco|40525",
      "Nombre": "Cajero Red Banelco en ALVAREZ THOMAS AV. Y MAURE"
    }
  },
  {
    "type": "Feature",
    "id": "cajeros_automaticos_red_banelco|40198",
    "geometry": {
      "type": "Point",
      "coordinates": [-58.38305367143432, -34.591389413864846]
    },
    "properties": {
      "Id": "cajeros_automaticos_red_banelco|40198",
      "Nombre": "Cajero Red Banelco en ALVEAR 1301"
    }
  },
  {
    "type": "Feature",
    "id": "cajeros_automaticos_red_banelco|40386",
    "geometry": {
      "type": "Point",
      "coordinates": [-58.39032919999997, -34.585794]
    },
    "properties": {
      "Id": "cajeros_automaticos_red_banelco|40386",
      "Nombre": "Cajero Red Banelco en ALVEAR AV. Y POSADAS"
    }
  },
  {
    "type": "Feature",
    "id": "cajeros_automaticos_red_banelco|40873",
    "geometry": {
      "type": "Point",
      "coordinates": [-58.4009163, -34.5966215]
    },
    "properties": {
      "Id": "cajeros_automaticos_red_banelco|40873",
      "Nombre": "Cajero Red Banelco en ALVEAR, MARCELO T. DE Y AZCUENAGA"
    }
  },
  {
    "type": "Feature",
    "id": "cajeros_automaticos_red_banelco|41041",
    "geometry": {
      "type": "Point",
      "coordinates": [-58.37306349999997, -34.596633199999985]
    },
    "properties": {
      "Id": "cajeros_automaticos_red_banelco|41041",
      "Nombre": "Cajero Red Banelco en ALVEAR, MARCELO T. DE Y RECONQUISTA"
    }
  },
  {
    "type": "Feature",
    "id": "cajeros_automaticos_red_banelco|41049",
    "geometry": {
      "type": "Point",
      "coordinates": [-58.38817139999996, -34.58809969999998]
    },
    "properties": {
      "Id": "cajeros_automaticos_red_banelco|41049",
      "Nombre": "Cajero Red Banelco en ALVEAR Y CALLAO AV."
    }
  },
  {
    "type": "Feature",
    "id": "cajeros_automaticos_red_banelco|41146",
    "geometry": {
      "type": "Point",
      "coordinates": [-58.38627089999997, -34.5893778]
    },
    "properties": {
      "Id": "cajeros_automaticos_red_banelco|41146",
      "Nombre": "Cajero Red Banelco en ALVEAR Y MONTEVIDEO"
    }
  },
  {
    "type": "Feature",
    "id": "cajeros_automaticos_red_banelco|39956",
    "geometry": {
      "type": "Point",
      "coordinates": [-58.548346, -34.677831]
    },
    "properties": {
      "Id": "cajeros_automaticos_red_banelco|39956",
      "Nombre": "Cajero Red Banelco en Ancaste Y Juan Pedro Esnaola"
    }
  },
  {
    "type": "Feature",
    "id": "cajeros_automaticos_red_banelco|40016",
    "geometry": {
      "type": "Point",
      "coordinates": [-58.41038, -34.603983]
    },
    "properties": {
      "Id": "cajeros_automaticos_red_banelco|40016",
      "Nombre": "Cajero Red Banelco en ANCHORENA, TOMAS MANUEL DE, DR. Y CORRIENTES AV."
    }
  },
  {
    "type": "Feature",
    "id": "cajeros_automaticos_red_banelco|41168",
    "geometry": {
      "type": "Point",
      "coordinates": [-58.41078859999996, -34.603329399999986]
    },
    "properties": {
      "Id": "cajeros_automaticos_red_banelco|41168",
      "Nombre": "Cajero Red Banelco en ANCHORENA, TOMAS MANUEL DE, DR. Y GARDEL, CARLOS"
    }
  },
  {
    "type": "Feature",
    "id": "cajeros_automaticos_red_banelco|40372",
    "geometry": {
      "type": "Point",
      "coordinates": [-58.5178186, -34.65305839999997]
    },
    "properties": {
      "Id": "cajeros_automaticos_red_banelco|40372",
      "Nombre": "Cajero Red Banelco en ANDALGALA Y CASTRO, EMILIO AV."
    }
  },
  {
    "type": "Feature",
    "id": "cajeros_automaticos_red_banelco|39739",
    "geometry": {
      "type": "Point",
      "coordinates": [-58.26504559999996, -34.7303267]
    },
    "properties": {
      "Id": "cajeros_automaticos_red_banelco|39739",
      "Nombre": "Cajero Red Banelco en Andrés Baranda Y 316 - Av. 12 de Octubre"
    }
  },
  {
    "type": "Feature",
    "id": "cajeros_automaticos_red_banelco|41141",
    "geometry": {
      "type": "Point",
      "coordinates": [-58.367982199999965, -34.59779459999998]
    },
    "properties": {
      "Id": "cajeros_automaticos_red_banelco|41141",
      "Nombre": "Cajero Red Banelco en ANTARTIDA ARGENTINA AV. Y GRIERSON, CECILIA"
    }
  },
  {
    "type": "Feature",
    "id": "cajeros_automaticos_red_banelco|41312",
    "geometry": {
      "type": "Point",
      "coordinates": [-58.36800459999998, -34.59882489999998]
    },
    "properties": {
      "Id": "cajeros_automaticos_red_banelco|41312",
      "Nombre": "Cajero Red Banelco en ANTARTIDA ARGENTINA AV. Y GRIERSON, CECILIA"
    }
  },
  {
    "type": "Feature",
    "id": "cajeros_automaticos_red_banelco|40976",
    "geometry": {
      "type": "Point",
      "coordinates": [-58.37099229999996, -34.58829029999998]
    },
    "properties": {
      "Id": "cajeros_automaticos_red_banelco|40976",
      "Nombre": "Cajero Red Banelco en ANTARTIDA ARGENTINA AV. Y RAMOS MEJIA, JOSE MARIA, DR. AV."
    }
  },
  {
    "type": "Feature",
    "id": "cajeros_automaticos_red_banelco|40883",
    "geometry": {
      "type": "Point",
      "coordinates": [-58.59067279999996, -34.588939]
    },
    "properties": {
      "Id": "cajeros_automaticos_red_banelco|40883",
      "Nombre": "Cajero Red Banelco en Antártida Argentina Y 821 - San Lorenzo"
    }
  },
  {
    "type": "Feature",
    "id": "cajeros_automaticos_red_banelco|41250",
    "geometry": {
      "type": "Point",
      "coordinates": [-58.61755739999997, -34.76435019999998]
    },
    "properties": {
      "Id": "cajeros_automaticos_red_banelco|41250",
      "Nombre": "Cajero Red Banelco en Antequera Y Juan Ramírez de Velasco"
    }
  },
  {
    "type": "Feature",
    "id": "cajeros_automaticos_red_banelco|39904",
    "geometry": {
      "type": "Point",
      "coordinates": [-58.399, -34.7434]
    },
    "properties": {
      "Id": "cajeros_automaticos_red_banelco|39904",
      "Nombre": "Cajero Red Banelco en Antonio Luis Beruti Y Avenida Hipólito Yrigoyen"
    }
  },
  {
    "type": "Feature",
    "id": "cajeros_automaticos_red_banelco|40178",
    "geometry": {
      "type": "Point",
      "coordinates": [-58.40192889999996, -34.758279499999986]
    },
    "properties": {
      "Id": "cajeros_automaticos_red_banelco|40178",
      "Nombre": "Cajero Red Banelco en Antonio Sáenz Y Avenida Hipólito Yrigoyen"
    }
  },
  {
    "type": "Feature",
    "id": "cajeros_automaticos_red_banelco|40632",
    "geometry": {
      "type": "Point",
      "coordinates": [-58.398968, -34.758285]
    },
    "properties": {
      "Id": "cajeros_automaticos_red_banelco|40632",
      "Nombre": "Cajero Red Banelco en Antonio Sáenz Y Leandro N. Alem"
    }
  },
  {
    "type": "Feature",
    "id": "cajeros_automaticos_red_banelco|41015",
    "geometry": {
      "type": "Point",
      "coordinates": [-58.398968, -34.758285]
    },
    "properties": {
      "Id": "cajeros_automaticos_red_banelco|41015",
      "Nombre": "Cajero Red Banelco en Antonio Sáenz Y Leandro N. Alem"
    }
  },
  {
    "type": "Feature",
    "id": "cajeros_automaticos_red_banelco|41277",
    "geometry": {
      "type": "Point",
      "coordinates": [-58.41688229999997, -34.791803299999984]
    },
    "properties": {
      "Id": "cajeros_automaticos_red_banelco|41277",
      "Nombre": "Cajero Red Banelco en Aragón Y 9 de Julio"
    }
  },
  {
    "type": "Feature",
    "id": "cajeros_automaticos_red_banelco|41193",
    "geometry": {
      "type": "Point",
      "coordinates": [-58.37293459999998, -34.64084519999999]
    },
    "properties": {
      "Id": "cajeros_automaticos_red_banelco|41193",
      "Nombre": "Cajero Red Banelco en ARAOZ DE LAMADRID, GREGORIO, GRAL. Y ISABEL LA CATOLICA"
    }
  },
  {
    "type": "Feature",
    "id": "cajeros_automaticos_red_banelco|40098",
    "geometry": {
      "type": "Point",
      "coordinates": [-58.50735739999996, -34.638632299999976]
    },
    "properties": {
      "Id": "cajeros_automaticos_red_banelco|40098",
      "Nombre": "Cajero Red Banelco en ARAUJO Y ECHENAGUCIA"
    }
  },
  {
    "type": "Feature",
    "id": "cajeros_automaticos_red_banelco|40124",
    "geometry": {
      "type": "Point",
      "coordinates": [-58.437217225087856, -34.56743769558916]
    },
    "properties": {
      "Id": "cajeros_automaticos_red_banelco|40124",
      "Nombre": "Cajero Red Banelco en ARCE 940"
    }
  },
  {
    "type": "Feature",
    "id": "cajeros_automaticos_red_banelco|40287",
    "geometry": {
      "type": "Point",
      "coordinates": [-58.446049, -34.583757]
    },
    "properties": {
      "Id": "cajeros_automaticos_red_banelco|40287",
      "Nombre": "Cajero Red Banelco en ARENAL, CONCEPCION Y CORDOBA AV."
    }
  },
  {
    "type": "Feature",
    "id": "cajeros_automaticos_red_banelco|40366",
    "geometry": {
      "type": "Point",
      "coordinates": [-58.45056859999997, -34.59108529999999]
    },
    "properties": {
      "Id": "cajeros_automaticos_red_banelco|40366",
      "Nombre": "Cajero Red Banelco en ARENAL, CONCEPCION Y GUZMAN"
    }
  },
  {
    "type": "Feature",
    "id": "cajeros_automaticos_red_banelco|40733",
    "geometry": {
      "type": "Point",
      "coordinates": [-58.44097259999997, -34.610529399999976]
    },
    "properties": {
      "Id": "cajeros_automaticos_red_banelco|40733",
      "Nombre": "Cajero Red Banelco en ARENGREEN Y HIDALGO"
    }
  },
  {
    "type": "Feature",
    "id": "cajeros_automaticos_red_banelco|41211",
    "geometry": {
      "type": "Point",
      "coordinates": [-58.49686559999997, -34.673612599999984]
    },
    "properties": {
      "Id": "cajeros_automaticos_red_banelco|41211",
      "Nombre": "Cajero Red Banelco en ARGENTINA AV. Y DE LA ROSA, JOSE I., DR."
    }
  },
  {
    "type": "Feature",
    "id": "cajeros_automaticos_red_banelco|41105",
    "geometry": {
      "type": "Point",
      "coordinates": [-58.46543719999998, -34.53809919999997]
    },
    "properties": {
      "Id": "cajeros_automaticos_red_banelco|41105",
      "Nombre": "Cajero Red Banelco en ARIAS Y DEL LIBERTADOR AV."
    }
  },
  {
    "type": "Feature",
    "id": "cajeros_automaticos_red_banelco|41290",
    "geometry": {
      "type": "Point",
      "coordinates": [-58.46543719999998, -34.53809919999997]
    },
    "properties": {
      "Id": "cajeros_automaticos_red_banelco|41290",
      "Nombre": "Cajero Red Banelco en ARIAS Y DEL LIBERTADOR AV."
    }
  },
  {
    "type": "Feature",
    "id": "cajeros_automaticos_red_banelco|40118",
    "geometry": {
      "type": "Point",
      "coordinates": [-58.46543719999998, -34.53809919999997]
    },
    "properties": {
      "Id": "cajeros_automaticos_red_banelco|40118",
      "Nombre": "Cajero Red Banelco en ARIAS Y DEL LIBERTADOR AV."
    }
  },
  {
    "type": "Feature",
    "id": "cajeros_automaticos_red_banelco|40692",
    "geometry": {
      "type": "Point",
      "coordinates": [-58.467825, -34.539539]
    },
    "properties": {
      "Id": "cajeros_automaticos_red_banelco|40692",
      "Nombre": "Cajero Red Banelco en ARIAS Y GRECIA"
    }
  },
  {
    "type": "Feature",
    "id": "cajeros_automaticos_red_banelco|40222",
    "geometry": {
      "type": "Point",
      "coordinates": [-58.48641439999997, -34.54753879999998]
    },
    "properties": {
      "Id": "cajeros_automaticos_red_banelco|40222",
      "Nombre": "Cajero Red Banelco en ARIAS Y MELIAN AV."
    }
  },
  {
    "type": "Feature",
    "id": "cajeros_automaticos_red_banelco|40511",
    "geometry": {
      "type": "Point",
      "coordinates": [-58.484185499999974, -34.54646169999999]
    },
    "properties": {
      "Id": "cajeros_automaticos_red_banelco|40511",
      "Nombre": "Cajero Red Banelco en ARIAS Y SUPERI"
    }
  },
  {
    "type": "Feature",
    "id": "cajeros_automaticos_red_banelco|40762",
    "geometry": {
      "type": "Point",
      "coordinates": [-58.40333139999996, -34.63688339999999]
    },
    "properties": {
      "Id": "cajeros_automaticos_red_banelco|40762",
      "Nombre": "Cajero Red Banelco en ARRIOLA Y CASEROS AV."
    }
  },
  {
    "type": "Feature",
    "id": "cajeros_automaticos_red_banelco|40663",
    "geometry": {
      "type": "Point",
      "coordinates": [-58.45757949999997, -34.64144669999999]
    },
    "properties": {
      "Id": "cajeros_automaticos_red_banelco|40663",
      "Nombre": "Cajero Red Banelco en ARROTEA Y PERON, EVA AV."
    }
  },
  {
    "type": "Feature",
    "id": "cajeros_automaticos_red_banelco|39763",
    "geometry": {
      "type": "Point",
      "coordinates": [-58.457461499999965, -34.6413916]
    },
    "properties": {
      "Id": "cajeros_automaticos_red_banelco|39763",
      "Nombre": "Cajero Red Banelco en ARROTEA Y PERON, EVA AV."
    }
  },
  {
    "type": "Feature",
    "id": "cajeros_automaticos_red_banelco|39742",
    "geometry": {
      "type": "Point",
      "coordinates": [-58.43916579999998, -34.63486179999999]
    },
    "properties": {
      "Id": "cajeros_automaticos_red_banelco|39742",
      "Nombre": "Cajero Red Banelco en ASAMBLEA AV. Y MITRE, EMILIO"
    }
  },
  {
    "type": "Feature",
    "id": "cajeros_automaticos_red_banelco|40822",
    "geometry": {
      "type": "Point",
      "coordinates": [-58.794209799999976, -34.3469483]
    },
    "properties": {
      "Id": "cajeros_automaticos_red_banelco|40822",
      "Nombre": "Cajero Red Banelco en Asborno Y Eugenia Tapia de Cruz"
    }
  },
  {
    "type": "Feature",
    "id": "cajeros_automaticos_red_banelco|40190",
    "geometry": {
      "type": "Point",
      "coordinates": [-58.7947987, -34.346521]
    },
    "properties": {
      "Id": "cajeros_automaticos_red_banelco|40190",
      "Nombre": "Cajero Red Banelco en Asborno Y Eugenia Tapia de Cruz"
    }
  },
  {
    "type": "Feature",
    "id": "cajeros_automaticos_red_banelco|40200",
    "geometry": {
      "type": "Point",
      "coordinates": [-58.51299848254441, -34.60189450232081]
    },
    "properties": {
      "Id": "cajeros_automaticos_red_banelco|40200",
      "Nombre": "Cajero Red Banelco en ASUNCION 4193"
    }
  },
  {
    "type": "Feature",
    "id": "cajeros_automaticos_red_banelco|40361",
    "geometry": {
      "type": "Point",
      "coordinates": [-58.18986709999999, -34.8403999]
    },
    "properties": {
      "Id": "cajeros_automaticos_red_banelco|40361",
      "Nombre": "Cajero Red Banelco en Autopista Doctor Ricardo Balbin Y Rotonda Juan María Gutiérrez"
    }
  },
  {
    "type": "Feature",
    "id": "cajeros_automaticos_red_banelco|40199",
    "geometry": {
      "type": "Point",
      "coordinates": [-58.50245910690116, -34.618183294684904]
    },
    "properties": {
      "Id": "cajeros_automaticos_red_banelco|40199",
      "Nombre": "Cajero Red Banelco en AV. ALVAREZ JONTE 4502"
    }
  },
  {
    "type": "Feature",
    "id": "cajeros_automaticos_red_banelco|40083",
    "geometry": {
      "type": "Point",
      "coordinates": [-58.50511557327923, -34.61963229944424]
    },
    "properties": {
      "Id": "cajeros_automaticos_red_banelco|40083",
      "Nombre": "Cajero Red Banelco en AV. ALVAREZ JONTE 4740"
    }
  },
  {
    "type": "Feature",
    "id": "cajeros_automaticos_red_banelco|40557",
    "geometry": {
      "type": "Point",
      "coordinates": [-58.51124388070189, -34.62365718712267]
    },
    "properties": {
      "Id": "cajeros_automaticos_red_banelco|40557",
      "Nombre": "Cajero Red Banelco en AV. ALVAREZ JONTE 5255"
    }
  },
  {
    "type": "Feature",
    "id": "cajeros_automaticos_red_banelco|40963",
    "geometry": {
      "type": "Point",
      "coordinates": [-58.383359318723464, -34.59120094825111]
    },
    "properties": {
      "Id": "cajeros_automaticos_red_banelco|40963",
      "Nombre": "Cajero Red Banelco en AV. ALVEAR 1331"
    }
  },
  {
    "type": "Feature",
    "id": "cajeros_automaticos_red_banelco|40615",
    "geometry": {
      "type": "Point",
      "coordinates": [-58.3853372771172, -34.59040673264326]
    },
    "properties": {
      "Id": "cajeros_automaticos_red_banelco|40615",
      "Nombre": "Cajero Red Banelco en AV. ALVEAR 1528"
    }
  },
  {
    "type": "Feature",
    "id": "cajeros_automaticos_red_banelco|40548",
    "geometry": {
      "type": "Point",
      "coordinates": [-58.43568797589177, -34.63443349423237]
    },
    "properties": {
      "Id": "cajeros_automaticos_red_banelco|40548",
      "Nombre": "Cajero Red Banelco en AV ASAMBLEA 695"
    }
  },
  {
    "type": "Feature",
    "id": "cajeros_automaticos_red_banelco|39941",
    "geometry": {
      "type": "Point",
      "coordinates": [-58.385445893338904, -34.613570594924674]
    },
    "properties": {
      "Id": "cajeros_automaticos_red_banelco|39941",
      "Nombre": "Cajero Red Banelco en AV. BELGRANO 1358"
    }
  },
  {
    "type": "Feature",
    "id": "cajeros_automaticos_red_banelco|40402",
    "geometry": {
      "type": "Point",
      "coordinates": [-58.391491167377055, -34.61362256502602]
    },
    "properties": {
      "Id": "cajeros_automaticos_red_banelco|40402",
      "Nombre": "Cajero Red Banelco en AV. BELGRANO 1783"
    }
  },
  {
    "type": "Feature",
    "id": "cajeros_automaticos_red_banelco|40634",
    "geometry": {
      "type": "Point",
      "coordinates": [-58.376071356100724, -34.61292661812162]
    },
    "properties": {
      "Id": "cajeros_automaticos_red_banelco|40634",
      "Nombre": "Cajero Red Banelco en AV. BELGRANO 698"
    }
  },
  {
    "type": "Feature",
    "id": "cajeros_automaticos_red_banelco|40108",
    "geometry": {
      "type": "Point",
      "coordinates": [-58.3801446330151, -34.61319636239939]
    },
    "properties": {
      "Id": "cajeros_automaticos_red_banelco|40108",
      "Nombre": "Cajero Red Banelco en AV. BELGRANO 980"
    }
  },
  {
    "type": "Feature",
    "id": "cajeros_automaticos_red_banelco|40755",
    "geometry": {
      "type": "Point",
      "coordinates": [-58.38031088501946, -34.61320747651754]
    },
    "properties": {
      "Id": "cajeros_automaticos_red_banelco|40755",
      "Nombre": "Cajero Red Banelco en AV. BELGRANO 992"
    }
  },
  {
    "type": "Feature",
    "id": "cajeros_automaticos_red_banelco|40407",
    "geometry": {
      "type": "Point",
      "coordinates": [-58.41668678823781, -34.621429209548246]
    },
    "properties": {
      "Id": "cajeros_automaticos_red_banelco|40407",
      "Nombre": "Cajero Red Banelco en AV. BOEDO 729"
    }
  },
  {
    "type": "Feature",
    "id": "cajeros_automaticos_red_banelco|40097",
    "geometry": {
      "type": "Point",
      "coordinates": [-58.41616835270361, -34.62257118766483]
    },
    "properties": {
      "Id": "cajeros_automaticos_red_banelco|40097",
      "Nombre": "Cajero Red Banelco en AV. BOEDO 802"
    }
  },
  {
    "type": "Feature",
    "id": "cajeros_automaticos_red_banelco|41202",
    "geometry": {
      "type": "Point",
      "coordinates": [-58.3826632988902, -34.62774081528399]
    },
    "properties": {
      "Id": "cajeros_automaticos_red_banelco|41202",
      "Nombre": "Cajero Red Banelco en AV. BRASIL 1199"
    }
  },
  {
    "type": "Feature",
    "id": "cajeros_automaticos_red_banelco|39798",
    "geometry": {
      "type": "Point",
      "coordinates": [-58.446502595589116, -34.56940518749335]
    },
    "properties": {
      "Id": "cajeros_automaticos_red_banelco|39798",
      "Nombre": "Cajero Red Banelco en AV. CABILDO 1000"
    }
  },
  {
    "type": "Feature",
    "id": "cajeros_automaticos_red_banelco|40306",
    "geometry": {
      "type": "Point",
      "coordinates": [-58.44650876222158, -34.56894638706698]
    },
    "properties": {
      "Id": "cajeros_automaticos_red_banelco|40306",
      "Nombre": "Cajero Red Banelco en AV. CABILDO 1021"
    }
  },
  {
    "type": "Feature",
    "id": "cajeros_automaticos_red_banelco|39990",
    "geometry": {
      "type": "Point",
      "coordinates": [-58.44756855190126, -34.56840615174305]
    },
    "properties": {
      "Id": "cajeros_automaticos_red_banelco|39990",
      "Nombre": "Cajero Red Banelco en AV. CABILDO 1159"
    }
  },
  {
    "type": "Feature",
    "id": "cajeros_automaticos_red_banelco|40187",
    "geometry": {
      "type": "Point",
      "coordinates": [-58.45356698228006, -34.56514702795281]
    },
    "properties": {
      "Id": "cajeros_automaticos_red_banelco|40187",
      "Nombre": "Cajero Red Banelco en AV. CABILDO 1741"
    }
  },
  {
    "type": "Feature",
    "id": "cajeros_automaticos_red_banelco|41177",
    "geometry": {
      "type": "Point",
      "coordinates": [-58.45453869905251, -34.56490480546522]
    },
    "properties": {
      "Id": "cajeros_automaticos_red_banelco|41177",
      "Nombre": "Cajero Red Banelco en AV. CABILDO 1802"
    }
  },
  {
    "type": "Feature",
    "id": "cajeros_automaticos_red_banelco|40011",
    "geometry": {
      "type": "Point",
      "coordinates": [-58.45520660145661, -34.56345272149868]
    },
    "properties": {
      "Id": "cajeros_automaticos_red_banelco|40011",
      "Nombre": "Cajero Red Banelco en AV. CABILDO 1939"
    }
  },
  {
    "type": "Feature",
    "id": "cajeros_automaticos_red_banelco|39843",
    "geometry": {
      "type": "Point",
      "coordinates": [-58.45745920187733, -34.56082957160871]
    },
    "properties": {
      "Id": "cajeros_automaticos_red_banelco|39843",
      "Nombre": "Cajero Red Banelco en AV. CABILDO 2215"
    }
  },
  {
    "type": "Feature",
    "id": "cajeros_automaticos_red_banelco|41135",
    "geometry": {
      "type": "Point",
      "coordinates": [-58.45935246784066, -34.558624695963196]
    },
    "properties": {
      "Id": "cajeros_automaticos_red_banelco|41135",
      "Nombre": "Cajero Red Banelco en AV CABILDO 2453"
    }
  },
  {
    "type": "Feature",
    "id": "cajeros_automaticos_red_banelco|40360",
    "geometry": {
      "type": "Point",
      "coordinates": [-58.45965127940012, -34.55828240775292]
    },
    "properties": {
      "Id": "cajeros_automaticos_red_banelco|40360",
      "Nombre": "Cajero Red Banelco en AV. CABILDO 2491"
    }
  },
  {
    "type": "Feature",
    "id": "cajeros_automaticos_red_banelco|40262",
    "geometry": {
      "type": "Point",
      "coordinates": [-58.46181044220297, -34.55663472070296]
    },
    "properties": {
      "Id": "cajeros_automaticos_red_banelco|40262",
      "Nombre": "Cajero Red Banelco en AV. CABILDO 2754"
    }
  },
  {
    "type": "Feature",
    "id": "cajeros_automaticos_red_banelco|41347",
    "geometry": {
      "type": "Point",
      "coordinates": [-58.46509666873844, -34.55247014932168]
    },
    "properties": {
      "Id": "cajeros_automaticos_red_banelco|41347",
      "Nombre": "Cajero Red Banelco en Av. Cabildo 3223"
    }
  },
  {
    "type": "Feature",
    "id": "cajeros_automaticos_red_banelco|40296",
    "geometry": {
      "type": "Point",
      "coordinates": [-58.46581301541579, -34.55157870401675]
    },
    "properties": {
      "Id": "cajeros_automaticos_red_banelco|40296",
      "Nombre": "Cajero Red Banelco en AV. CABILDO 3349"
    }
  },
  {
    "type": "Feature",
    "id": "cajeros_automaticos_red_banelco|40520",
    "geometry": {
      "type": "Point",
      "coordinates": [-58.467734527834956, -34.54983620712159]
    },
    "properties": {
      "Id": "cajeros_automaticos_red_banelco|40520",
      "Nombre": "Cajero Red Banelco en AV.CABILDO 3622"
    }
  },
  {
    "type": "Feature",
    "id": "cajeros_automaticos_red_banelco|39892",
    "geometry": {
      "type": "Point",
      "coordinates": [-58.468469239653324, -34.54898118641761]
    },
    "properties": {
      "Id": "cajeros_automaticos_red_banelco|39892",
      "Nombre": "Cajero Red Banelco en AV. CABILDO 3702"
    }
  },
  {
    "type": "Feature",
    "id": "cajeros_automaticos_red_banelco|40153",
    "geometry": {
      "type": "Point",
      "coordinates": [-58.47376590602316, -34.54190404732337]
    },
    "properties": {
      "Id": "cajeros_automaticos_red_banelco|40153",
      "Nombre": "Cajero Red Banelco en AV. CABILDO 4664"
    }
  },
  {
    "type": "Feature",
    "id": "cajeros_automaticos_red_banelco|41228",
    "geometry": {
      "type": "Point",
      "coordinates": [-58.44435106296084, -34.57000586632521]
    },
    "properties": {
      "Id": "cajeros_automaticos_red_banelco|41228",
      "Nombre": "Cajero Red Banelco en AV. CABILDO 745"
    }
  },
  {
    "type": "Feature",
    "id": "cajeros_automaticos_red_banelco|40370",
    "geometry": {
      "type": "Point",
      "coordinates": [-58.444529486472746, -34.56991825345302]
    },
    "properties": {
      "Id": "cajeros_automaticos_red_banelco|40370",
      "Nombre": "Cajero Red Banelco en AV. CABILDO 769"
    }
  },
  {
    "type": "Feature",
    "id": "cajeros_automaticos_red_banelco|41199",
    "geometry": {
      "type": "Point",
      "coordinates": [-58.44531897702758, -34.56953058044336]
    },
    "properties": {
      "Id": "cajeros_automaticos_red_banelco|41199",
      "Nombre": "Cajero Red Banelco en AV. CABILDO 867"
    }
  },
  {
    "type": "Feature",
    "id": "cajeros_automaticos_red_banelco|40792",
    "geometry": {
      "type": "Point",
      "coordinates": [-58.44587703380238, -34.56925655912476]
    },
    "properties": {
      "Id": "cajeros_automaticos_red_banelco|40792",
      "Nombre": "Cajero Red Banelco en AV. CABILDO 935"
    }
  },
  {
    "type": "Feature",
    "id": "cajeros_automaticos_red_banelco|40447",
    "geometry": {
      "type": "Point",
      "coordinates": [-58.393009359942376, -34.596912117318574]
    },
    "properties": {
      "Id": "cajeros_automaticos_red_banelco|40447",
      "Nombre": "Cajero Red Banelco en AV. CALLAO 1021"
    }
  },
  {
    "type": "Feature",
    "id": "cajeros_automaticos_red_banelco|40029",
    "geometry": {
      "type": "Point",
      "coordinates": [-58.39302395631518, -34.59521536893143]
    },
    "properties": {
      "Id": "cajeros_automaticos_red_banelco|40029",
      "Nombre": "Cajero Red Banelco en AV. CALLAO 1165"
    }
  },
  {
    "type": "Feature",
    "id": "cajeros_automaticos_red_banelco|40923",
    "geometry": {
      "type": "Point",
      "coordinates": [-58.393017322566706, -34.59515604582937]
    },
    "properties": {
      "Id": "cajeros_automaticos_red_banelco|40923",
      "Nombre": "Cajero Red Banelco en AV. CALLAO 1171"
    }
  },
  {
    "type": "Feature",
    "id": "cajeros_automaticos_red_banelco|39840",
    "geometry": {
      "type": "Point",
      "coordinates": [-58.39333489602215, -34.59412100746525]
    },
    "properties": {
      "Id": "cajeros_automaticos_red_banelco|39840",
      "Nombre": "Cajero Red Banelco en AV. CALLAO 1270"
    }
  },
  {
    "type": "Feature",
    "id": "cajeros_automaticos_red_banelco|39788",
    "geometry": {
      "type": "Point",
      "coordinates": [-58.39333489602215, -34.59412100746525]
    },
    "properties": {
      "Id": "cajeros_automaticos_red_banelco|39788",
      "Nombre": "Cajero Red Banelco en AV. CALLAO 1270"
    }
  },
  {
    "type": "Feature",
    "id": "cajeros_automaticos_red_banelco|39778",
    "geometry": {
      "type": "Point",
      "coordinates": [-58.392889481869624, -34.59405837791033]
    },
    "properties": {
      "Id": "cajeros_automaticos_red_banelco|39778",
      "Nombre": "Cajero Red Banelco en AV. CALLAO 1279"
    }
  },
  {
    "type": "Feature",
    "id": "cajeros_automaticos_red_banelco|40844",
    "geometry": {
      "type": "Point",
      "coordinates": [-58.39185157678038, -34.60748039872176]
    },
    "properties": {
      "Id": "cajeros_automaticos_red_banelco|40844",
      "Nombre": "Cajero Red Banelco en AV. CALLAO 141"
    }
  },
  {
    "type": "Feature",
    "id": "cajeros_automaticos_red_banelco|40518",
    "geometry": {
      "type": "Point",
      "coordinates": [-58.39184543321286, -34.59194731218422]
    },
    "properties": {
      "Id": "cajeros_automaticos_red_banelco|40518",
      "Nombre": "Cajero Red Banelco en AV. CALLAO 1499"
    }
  },
  {
    "type": "Feature",
    "id": "cajeros_automaticos_red_banelco|41121",
    "geometry": {
      "type": "Point",
      "coordinates": [-58.39045939737129, -34.59073011901222]
    },
    "properties": {
      "Id": "cajeros_automaticos_red_banelco|41121",
      "Nombre": "Cajero Red Banelco en AV. CALLAO 1631"
    }
  },
  {
    "type": "Feature",
    "id": "cajeros_automaticos_red_banelco|41345",
    "geometry": {
      "type": "Point",
      "coordinates": [-58.390180551535586, -34.590480028929974]
    },
    "properties": {
      "Id": "cajeros_automaticos_red_banelco|41345",
      "Nombre": "Cajero Red Banelco en AV. CALLAO 1661"
    }
  },
  {
    "type": "Feature",
    "id": "cajeros_automaticos_red_banelco|39735",
    "geometry": {
      "type": "Point",
      "coordinates": [-58.3918727015185, -34.60715868836321]
    },
    "properties": {
      "Id": "cajeros_automaticos_red_banelco|39735",
      "Nombre": "Cajero Red Banelco en AV. CALLAO 169"
    }
  },
  {
    "type": "Feature",
    "id": "cajeros_automaticos_red_banelco|40209",
    "geometry": {
      "type": "Point",
      "coordinates": [-58.39024082109431, -34.5900021844959]
    },
    "properties": {
      "Id": "cajeros_automaticos_red_banelco|40209",
      "Nombre": "Cajero Red Banelco en AV CALLAO 1690"
    }
  },
  {
    "type": "Feature",
    "id": "cajeros_automaticos_red_banelco|40202",
    "geometry": {
      "type": "Point",
      "coordinates": [-58.388528836586744, -34.58899131310058]
    },
    "properties": {
      "Id": "cajeros_automaticos_red_banelco|40202",
      "Nombre": "Cajero Red Banelco en AV. CALLAO 1833"
    }
  },
  {
    "type": "Feature",
    "id": "cajeros_automaticos_red_banelco|40404",
    "geometry": {
      "type": "Point",
      "coordinates": [-58.3870495693891, -34.58776316505454]
    },
    "properties": {
      "Id": "cajeros_automaticos_red_banelco|40404",
      "Nombre": "Cajero Red Banelco en AV. CALLAO 1991"
    }
  },
  {
    "type": "Feature",
    "id": "cajeros_automaticos_red_banelco|40556",
    "geometry": {
      "type": "Point",
      "coordinates": [-58.39194374692845, -34.606129586264885]
    },
    "properties": {
      "Id": "cajeros_automaticos_red_banelco|40556",
      "Nombre": "Cajero Red Banelco en AV.CALLAO 257"
    }
  },
  {
    "type": "Feature",
    "id": "cajeros_automaticos_red_banelco|39919",
    "geometry": {
      "type": "Point",
      "coordinates": [-58.39238380405921, -34.60608546445395]
    },
    "properties": {
      "Id": "cajeros_automaticos_red_banelco|39919",
      "Nombre": "Cajero Red Banelco en AV. CALLAO 264"
    }
  },
  {
    "type": "Feature",
    "id": "cajeros_automaticos_red_banelco|40036",
    "geometry": {
      "type": "Point",
      "coordinates": [-58.39195644749654, -34.60595439532786]
    },
    "properties": {
      "Id": "cajeros_automaticos_red_banelco|40036",
      "Nombre": "Cajero Red Banelco en AV. CALLAO 273"
    }
  },
  {
    "type": "Feature",
    "id": "cajeros_automaticos_red_banelco|40276",
    "geometry": {
      "type": "Point",
      "coordinates": [-58.39202461867813, -34.6050409399851]
    },
    "properties": {
      "Id": "cajeros_automaticos_red_banelco|40276",
      "Nombre": "Cajero Red Banelco en AV. CALLAO 349"
    }
  },
  {
    "type": "Feature",
    "id": "cajeros_automaticos_red_banelco|40335",
    "geometry": {
      "type": "Point",
      "coordinates": [-58.40205423258788, -34.63630193368203]
    },
    "properties": {
      "Id": "cajeros_automaticos_red_banelco|40335",
      "Nombre": "Cajero Red Banelco en AV. CASEROS 2795"
    }
  },
  {
    "type": "Feature",
    "id": "cajeros_automaticos_red_banelco|40874",
    "geometry": {
      "type": "Point",
      "coordinates": [-58.42476819646508, -34.6507370723143]
    },
    "properties": {
      "Id": "cajeros_automaticos_red_banelco|40874",
      "Nombre": "Cajero Red Banelco en AV. CENTENERA 2933"
    }
  },
  {
    "type": "Feature",
    "id": "cajeros_automaticos_red_banelco|40300",
    "geometry": {
      "type": "Point",
      "coordinates": [-58.50343062203957, -34.5730348702481]
    },
    "properties": {
      "Id": "cajeros_automaticos_red_banelco|40300",
      "Nombre": "Cajero Red Banelco en AV. CONSTITUYENTES 5847"
    }
  },
  {
    "type": "Feature",
    "id": "cajeros_automaticos_red_banelco|40184",
    "geometry": {
      "type": "Point",
      "coordinates": [-58.50343062203957, -34.5730348702481]
    },
    "properties": {
      "Id": "cajeros_automaticos_red_banelco|40184",
      "Nombre": "Cajero Red Banelco en AV. CONSTITUYENTES 5847"
    }
  },
  {
    "type": "Feature",
    "id": "cajeros_automaticos_red_banelco|40176",
    "geometry": {
      "type": "Point",
      "coordinates": [-58.38531842122197, -34.59907091147929]
    },
    "properties": {
      "Id": "cajeros_automaticos_red_banelco|40176",
      "Nombre": "Cajero Red Banelco en AV. CORDOBA 1299"
    }
  },
  {
    "type": "Feature",
    "id": "cajeros_automaticos_red_banelco|39950",
    "geometry": {
      "type": "Point",
      "coordinates": [-58.38570683902483, -34.59905724822299]
    },
    "properties": {
      "Id": "cajeros_automaticos_red_banelco|39950",
      "Nombre": "Cajero Red Banelco en AV. CORDOBA 1315"
    }
  },
  {
    "type": "Feature",
    "id": "cajeros_automaticos_red_banelco|40774",
    "geometry": {
      "type": "Point",
      "coordinates": [-58.38721338249286, -34.59948895397699]
    },
    "properties": {
      "Id": "cajeros_automaticos_red_banelco|40774",
      "Nombre": "Cajero Red Banelco en AV. CORDOBA 1428"
    }
  },
  {
    "type": "Feature",
    "id": "cajeros_automaticos_red_banelco|39938",
    "geometry": {
      "type": "Point",
      "coordinates": [-58.3909932747042, -34.599763768656494]
    },
    "properties": {
      "Id": "cajeros_automaticos_red_banelco|39938",
      "Nombre": "Cajero Red Banelco en AV. CORDOBA 1674"
    }
  },
  {
    "type": "Feature",
    "id": "cajeros_automaticos_red_banelco|40761",
    "geometry": {
      "type": "Point",
      "coordinates": [-58.39701121727311, -34.599906452335276]
    },
    "properties": {
      "Id": "cajeros_automaticos_red_banelco|40761",
      "Nombre": "Cajero Red Banelco en AV. CORDOBA 2090"
    }
  },
  {
    "type": "Feature",
    "id": "cajeros_automaticos_red_banelco|40012",
    "geometry": {
      "type": "Point",
      "coordinates": [-58.39922886929843, -34.59988346293621]
    },
    "properties": {
      "Id": "cajeros_automaticos_red_banelco|40012",
      "Nombre": "Cajero Red Banelco en AV. CORDOBA 2240"
    }
  },
  {
    "type": "Feature",
    "id": "cajeros_automaticos_red_banelco|40217",
    "geometry": {
      "type": "Point",
      "coordinates": [-58.39971143631196, -34.5998275690377]
    },
    "properties": {
      "Id": "cajeros_automaticos_red_banelco|40217",
      "Nombre": "Cajero Red Banelco en AV. CORDOBA  2282"
    }
  },
  {
    "type": "Feature",
    "id": "cajeros_automaticos_red_banelco|39954",
    "geometry": {
      "type": "Point",
      "coordinates": [-58.403275660837984, -34.59847944755766]
    },
    "properties": {
      "Id": "cajeros_automaticos_red_banelco|39954",
      "Nombre": "Cajero Red Banelco en AV. CORDOBA 2571/81"
    }
  },
  {
    "type": "Feature",
    "id": "cajeros_automaticos_red_banelco|40862",
    "geometry": {
      "type": "Point",
      "coordinates": [-58.41228350490196, -34.59780514636051]
    },
    "properties": {
      "Id": "cajeros_automaticos_red_banelco|40862",
      "Nombre": "Cajero Red Banelco en AV. CORDOBA 3227"
    }
  },
  {
    "type": "Feature",
    "id": "cajeros_automaticos_red_banelco|40466",
    "geometry": {
      "type": "Point",
      "coordinates": [-58.37192166122039, -34.59826886031267]
    },
    "properties": {
      "Id": "cajeros_automaticos_red_banelco|40466",
      "Nombre": "Cajero Red Banelco en AV. CORDOBA 331"
    }
  },
  {
    "type": "Feature",
    "id": "cajeros_automaticos_red_banelco|40930",
    "geometry": {
      "type": "Point",
      "coordinates": [-58.41907908303156, -34.59796622340277]
    },
    "properties": {
      "Id": "cajeros_automaticos_red_banelco|40930",
      "Nombre": "Cajero Red Banelco en AV. CORDOBA 3710"
    }
  },
  {
    "type": "Feature",
    "id": "cajeros_automaticos_red_banelco|40554",
    "geometry": {
      "type": "Point",
      "coordinates": [-58.430784092881076, -34.5935988471569]
    },
    "properties": {
      "Id": "cajeros_automaticos_red_banelco|40554",
      "Nombre": "Cajero Red Banelco en AV. CORDOBA 4675"
    }
  },
  {
    "type": "Feature",
    "id": "cajeros_automaticos_red_banelco|40321",
    "geometry": {
      "type": "Point",
      "coordinates": [-58.43478391373359, -34.59140204154698]
    },
    "properties": {
      "Id": "cajeros_automaticos_red_banelco|40321",
      "Nombre": "Cajero Red Banelco en AV. CORDOBA 5030"
    }
  },
  {
    "type": "Feature",
    "id": "cajeros_automaticos_red_banelco|41205",
    "geometry": {
      "type": "Point",
      "coordinates": [-58.374684096247925, -34.59883729395576]
    },
    "properties": {
      "Id": "cajeros_automaticos_red_banelco|41205",
      "Nombre": "Cajero Red Banelco en AV. CORDOBA 544"
    }
  },
  {
    "type": "Feature",
    "id": "cajeros_automaticos_red_banelco|41337",
    "geometry": {
      "type": "Point",
      "coordinates": [-58.37588615750941, -34.598559597634875]
    },
    "properties": {
      "Id": "cajeros_automaticos_red_banelco|41337",
      "Nombre": "Cajero Red Banelco en AV. CORDOBA 633"
    }
  },